station_name,latitude,longitude,month,day_of_week,holiday,time_type,malfunction_cause,malfunction_cause_group,rain_bins,wind_bins,temp_bins,duration_minutes
Almere Oostvaarders,52.403331756591996,5.3005557060242,January,Tuesday,holiday,peak,vandalism,external,medium,medium,chilly,162
Lelystad Centrum,52.507778167725,5.4727778434753,January,Tuesday,holiday,peak,vandalism,external,medium,medium,chilly,162
Ermelo,52.301666259765994,5.6147222518921,January,Tuesday,holiday,peak,signal failure,infrastructure,medium,medium,chilly,17
Harderwijk,52.337501525879,5.619722366333,January,Tuesday,holiday,peak,signal failure,infrastructure,medium,medium,chilly,17
Putten,52.264999389648,5.5752778053284,January,Tuesday,holiday,peak,signal failure,infrastructure,medium,medium,chilly,17
Culemborg,51.946666717529,5.2269444465637,January,Tuesday,holiday,peak,an emergency call,external,medium,medium,chilly,34
Geldermalsen,51.88301,5.27127,January,Tuesday,holiday,peak,an emergency call,external,medium,medium,chilly,34
Houten Castellum,52.01701,5.17949,January,Tuesday,holiday,peak,an emergency call,external,medium,medium,chilly,34
Amersfoort Centraal,52.153888702393,5.3705554008484,January,Tuesday,holiday,off-peak,repair works,engineering work,medium,medium,chilly,182
Amersfoort Schothorst,52.174822137451,5.4038887023925986,January,Tuesday,holiday,off-peak,repair works,engineering work,medium,medium,chilly,182
Amersfoort Vathorst,52.192779541015994,5.4338889122009,January,Tuesday,holiday,off-peak,repair works,engineering work,medium,medium,chilly,182
Ermelo,52.301666259765994,5.6147222518921,January,Tuesday,holiday,off-peak,repair works,engineering work,medium,medium,chilly,182
Harderwijk,52.337501525879,5.619722366333,January,Tuesday,holiday,off-peak,repair works,engineering work,medium,medium,chilly,182
't Harde,52.4091682,5.893611,January,Tuesday,holiday,off-peak,repair works,engineering work,medium,medium,chilly,182
Nijkerk,52.222221374511996,5.4938888549805,January,Tuesday,holiday,off-peak,repair works,engineering work,medium,medium,chilly,182
Nunspeet,52.370834350586,5.7852778434753,January,Tuesday,holiday,off-peak,repair works,engineering work,medium,medium,chilly,182
Putten,52.264999389648,5.5752778053284,January,Tuesday,holiday,off-peak,repair works,engineering work,medium,medium,chilly,182
Wezep,52.454166412354,6.0025000572205,January,Tuesday,holiday,off-peak,repair works,engineering work,medium,medium,chilly,182
Zwolle,52.50472259521499,6.0919442176819,January,Tuesday,holiday,off-peak,repair works,engineering work,medium,medium,chilly,182
Gouda,52.017501831055,4.7044444084167,January,Tuesday,holiday,off-peak,broken down train,rolling stock,medium,medium,chilly,33
Gouda Goverwelle,52.014999389648,4.7408332824707005,January,Tuesday,holiday,off-peak,broken down train,rolling stock,medium,medium,chilly,33
Woerden,52.084999084473,4.8936109542847,January,Tuesday,holiday,off-peak,broken down train,rolling stock,medium,medium,chilly,33
Groningen Noord,53.2301469,6.5563172000000005,January,Tuesday,holiday,peak,broken down train,rolling stock,medium,medium,chilly,112
Sauwerd,53.29113,6.5404,January,Tuesday,holiday,peak,broken down train,rolling stock,medium,medium,chilly,112
Schiphol Airport,52.30944442749001,4.7619442939758,January,Tuesday,holiday,off-peak,broken down train,rolling stock,medium,medium,chilly,11
Zwolle,52.50472259521499,6.0919442176819,January,Wednesday,nonholiday,off-peak,broken down train,rolling stock,medium,medium,freezing,138
Beesd,51.899444580078004,5.1944446563721,January,Wednesday,nonholiday,off-peak,signal and level crossing failure,infrastructure,medium,medium,freezing,194
Geldermalsen,51.88301,5.27127,January,Wednesday,nonholiday,off-peak,signal and level crossing failure,infrastructure,medium,medium,freezing,194
Leerdam,51.894721984863004,5.0913887023925986,January,Wednesday,nonholiday,off-peak,signal and level crossing failure,infrastructure,medium,medium,freezing,194
Kapelle-Biezelinge,51.480834960938,3.9561111927033,January,Wednesday,nonholiday,peak,person on the railway track,external,medium,medium,freezing,14
Goes,51.498054504395,3.8905556201935,January,Wednesday,nonholiday,peak,person on the railway track,external,medium,medium,freezing,14
Kruiningen-Yerseke,51.465000152588,4.0372223854065,January,Wednesday,nonholiday,peak,person on the railway track,external,medium,medium,freezing,14
Hoofddorp,52.293334960938,4.700555324554402,January,Wednesday,nonholiday,peak,damaged overhead wires,infrastructure,medium,medium,freezing,64
Leiden Centraal,52.166110992432,4.4816665649414,January,Wednesday,nonholiday,peak,damaged overhead wires,infrastructure,medium,medium,freezing,64
Nieuw Vennep,52.258888244629,4.6455554962158,January,Wednesday,nonholiday,peak,damaged overhead wires,infrastructure,medium,medium,freezing,64
Sassenheim,52.21527800000001,4.517222,January,Wednesday,nonholiday,peak,damaged overhead wires,infrastructure,medium,medium,freezing,64
Coevorden,52.663612365723,6.7355556488037,January,Wednesday,nonholiday,off-peak,points failure,infrastructure,medium,medium,freezing,59
Dalen,52.69416809082,6.7580556869507005,January,Wednesday,nonholiday,off-peak,points failure,infrastructure,medium,medium,freezing,59
Emmen,52.790000915527,6.8994445800781,January,Wednesday,nonholiday,off-peak,points failure,infrastructure,medium,medium,freezing,59
Emmen Zuid,52.748866374691,6.8747806549072,January,Wednesday,nonholiday,off-peak,points failure,infrastructure,medium,medium,freezing,59
Utrecht Centraal,52.088890075684006,5.1102776527405,January,Wednesday,nonholiday,off-peak,broken down train,rolling stock,medium,medium,freezing,34
Utrecht Terwijde,52.1000753,5.0439547,January,Wednesday,nonholiday,off-peak,broken down train,rolling stock,medium,medium,freezing,34
Vleuten,52.103056,5.007404,January,Wednesday,nonholiday,off-peak,broken down train,rolling stock,medium,medium,freezing,34
Woerden,52.084999084473,4.8936109542847,January,Wednesday,nonholiday,off-peak,broken down train,rolling stock,medium,medium,freezing,34
Utrecht Leidsche Rijn,52.09896,5.0652300000000015,January,Wednesday,nonholiday,off-peak,broken down train,rolling stock,medium,medium,freezing,34
Almelo,52.358055114746,6.6538887023925986,January,Wednesday,nonholiday,off-peak,points failure,infrastructure,medium,medium,freezing,109
Wierden,52.361389160156,6.5916666984558,January,Wednesday,nonholiday,off-peak,points failure,infrastructure,medium,medium,freezing,109
Kaldenkirchen,51.327184,6.203225,January,Thursday,nonholiday,off-peak,problems with the rolling stock,rolling stock,low,low,freezing,264
Mönchengladbach Hbf,51.196583,6.446111,January,Thursday,nonholiday,off-peak,problems with the rolling stock,rolling stock,low,low,freezing,264
Viersen,51.25516,6.40388,January,Thursday,nonholiday,off-peak,problems with the rolling stock,rolling stock,low,low,freezing,264
Venlo,51.36360931396499,6.1727776527405,January,Thursday,nonholiday,off-peak,problems with the rolling stock,rolling stock,low,low,freezing,264
Boisheim,51.274323,6.274591,January,Thursday,nonholiday,off-peak,problems with the rolling stock,rolling stock,low,low,freezing,264
Breyell,51.294615,6.241174,January,Thursday,nonholiday,off-peak,problems with the rolling stock,rolling stock,low,low,freezing,264
Dülken,51.257149,6.33793,January,Thursday,nonholiday,off-peak,problems with the rolling stock,rolling stock,low,low,freezing,264
Breda,51.595554351807,4.7800002098083,January,Thursday,nonholiday,off-peak,broken down train,rolling stock,low,low,freezing,18
Rotterdam Centraal,51.92499923705999,4.468888759613,January,Thursday,nonholiday,off-peak,broken down train,rolling stock,low,low,freezing,18
Utrecht Centraal,52.088890075684006,5.1102776527405,January,Thursday,nonholiday,off-peak,points failure,infrastructure,low,low,freezing,181
Utrecht Overvecht,52.110000610352,5.1247220039368,January,Thursday,nonholiday,off-peak,points failure,infrastructure,low,low,freezing,181
Utrecht Centraal,52.088890075684006,5.1102776527405,January,Thursday,nonholiday,off-peak,points failure,infrastructure,low,low,freezing,164
Utrecht Overvecht,52.110000610352,5.1247220039368,January,Thursday,nonholiday,off-peak,points failure,infrastructure,low,low,freezing,164
Den Haag Mariahoeve,52.090557098389,4.3694443702698,January,Thursday,nonholiday,off-peak,broken down train,rolling stock,low,low,freezing,17
Den Haag Laan v NOI,52.07860946655301,4.3427777290344,January,Thursday,nonholiday,off-peak,broken down train,rolling stock,low,low,freezing,17
Den Haag Mariahoeve,52.090557098389,4.3694443702698,January,Thursday,nonholiday,off-peak,broken down train,rolling stock,low,low,freezing,32
Den Haag Laan v NOI,52.07860946655301,4.3427777290344,January,Thursday,nonholiday,off-peak,broken down train,rolling stock,low,low,freezing,32
Driebergen-Zeist,52.065277099609006,5.25861120224,January,Thursday,nonholiday,off-peak,collision with a vehicle,accidents,low,low,freezing,118
Ede-Wageningen,52.027778625488004,5.6730556488037,January,Thursday,nonholiday,off-peak,collision with a vehicle,accidents,low,low,freezing,118
Veenendaal-De Klomp,52.045833587646,5.5738887786865,January,Thursday,nonholiday,off-peak,collision with a vehicle,accidents,low,low,freezing,118
Maarn,52.064167022705,5.3699998855591,January,Thursday,nonholiday,off-peak,collision with a vehicle,accidents,low,low,freezing,118
Amersfoort Centraal,52.153888702393,5.3705554008484,January,Thursday,nonholiday,off-peak,disruption elsewhere,logistical,low,low,freezing,100
Barneveld Centrum,52.139999389648,5.590277671814,January,Thursday,nonholiday,off-peak,disruption elsewhere,logistical,low,low,freezing,100
Barneveld Noord,52.161388397216996,5.598055362701402,January,Thursday,nonholiday,off-peak,disruption elsewhere,logistical,low,low,freezing,100
Ede-Wageningen,52.027778625488004,5.6730556488037,January,Thursday,nonholiday,off-peak,disruption elsewhere,logistical,low,low,freezing,100
Ede Centrum,52.043609619140994,5.6683335304260005,January,Thursday,nonholiday,off-peak,disruption elsewhere,logistical,low,low,freezing,100
Lunteren,52.085277557373,5.6244444847107005,January,Thursday,nonholiday,off-peak,disruption elsewhere,logistical,low,low,freezing,100
Hoevelaken,52.16652,5.45718,January,Thursday,nonholiday,off-peak,disruption elsewhere,logistical,low,low,freezing,100
Barneveld Zuid,52.128853,5.60246,January,Thursday,nonholiday,off-peak,disruption elsewhere,logistical,low,low,freezing,100
Arnhem Centraal,51.985000610352,5.899166584014901,January,Thursday,nonholiday,peak,disruption elsewhere,logistical,low,low,freezing,92
Bunnik,52.063056945801,5.1944446563721,January,Thursday,nonholiday,peak,disruption elsewhere,logistical,low,low,freezing,92
Driebergen-Zeist,52.065277099609006,5.25861120224,January,Thursday,nonholiday,peak,disruption elsewhere,logistical,low,low,freezing,92
Ede-Wageningen,52.027778625488004,5.6730556488037,January,Thursday,nonholiday,peak,disruption elsewhere,logistical,low,low,freezing,92
Veenendaal-De Klomp,52.045833587646,5.5738887786865,January,Thursday,nonholiday,peak,disruption elsewhere,logistical,low,low,freezing,92
Maarn,52.064167022705,5.3699998855591,January,Thursday,nonholiday,peak,disruption elsewhere,logistical,low,low,freezing,92
Oosterbeek,51.99499893188501,5.8400001525879,January,Thursday,nonholiday,peak,disruption elsewhere,logistical,low,low,freezing,92
Utrecht Centraal,52.088890075684006,5.1102776527405,January,Thursday,nonholiday,peak,disruption elsewhere,logistical,low,low,freezing,92
Wolfheze,52.005554199219,5.7936110496521,January,Thursday,nonholiday,peak,disruption elsewhere,logistical,low,low,freezing,92
Utrecht Vaartsche Rijn,52.078889,5.121667,January,Thursday,nonholiday,peak,disruption elsewhere,logistical,low,low,freezing,92
Schiphol Airport,52.30944442749001,4.7619442939758,January,Thursday,nonholiday,peak,fire alarm,external,low,low,freezing,31
Apeldoorn,52.209167480469,5.9702777862549015,January,Thursday,nonholiday,peak,broken down train,rolling stock,low,low,freezing,36
Apeldoorn Osseveld,52.215278625488004,6.0044445991516,January,Thursday,nonholiday,peak,broken down train,rolling stock,low,low,freezing,36
Deventer,52.257499694824,6.160555362701402,January,Thursday,nonholiday,peak,broken down train,rolling stock,low,low,freezing,36
Twello,52.237777709961,6.0986108779907,January,Thursday,nonholiday,peak,broken down train,rolling stock,low,low,freezing,36
's-Hertogenbosch,51.69048,5.29362,January,Thursday,nonholiday,peak,points failure,infrastructure,low,low,freezing,53
Tilburg,51.560554504395,5.0836110115050985,January,Thursday,nonholiday,peak,points failure,infrastructure,low,low,freezing,53
Best,51.50999832153301,5.3891668319702015,January,Thursday,nonholiday,peak,points failure,infrastructure,low,low,freezing,79
Boxtel,51.58433,5.31912,January,Thursday,nonholiday,peak,points failure,infrastructure,low,low,freezing,79
Eindhoven Centraal,51.443332672119,5.4813890457153,January,Thursday,nonholiday,peak,points failure,infrastructure,low,low,freezing,79
's-Hertogenbosch,51.69048,5.29362,January,Thursday,nonholiday,peak,points failure,infrastructure,low,low,freezing,79
Vught,51.655555725098,5.2919445037842,January,Thursday,nonholiday,peak,points failure,infrastructure,low,low,freezing,79
Eindhoven Strijp-S,51.451110839844,5.4558334350586,January,Thursday,nonholiday,peak,points failure,infrastructure,low,low,freezing,79
's-Hertogenbosch,51.69048,5.29362,January,Thursday,nonholiday,off-peak,points failure,infrastructure,low,low,freezing,80
Tilburg,51.560554504395,5.0836110115050985,January,Thursday,nonholiday,off-peak,points failure,infrastructure,low,low,freezing,80
Dordrecht,51.807220458984006,4.668333530426,January,Friday,nonholiday,off-peak,over-running engineering works,engineering work,low,low,freezing,94
Dordrecht Zuid,51.790000915527,4.6713891029358,January,Friday,nonholiday,off-peak,over-running engineering works,engineering work,low,low,freezing,94
Oudenbosch,51.587776184082,4.5333333015442,January,Friday,nonholiday,off-peak,over-running engineering works,engineering work,low,low,freezing,94
Roosendaal,51.540279388428004,4.4583334922791,January,Friday,nonholiday,off-peak,over-running engineering works,engineering work,low,low,freezing,94
Lage Zwaluwe,51.69111251830999,4.663055419921902,January,Friday,nonholiday,off-peak,over-running engineering works,engineering work,low,low,freezing,94
Zevenbergen,51.64042,4.60904,January,Friday,nonholiday,off-peak,over-running engineering works,engineering work,low,low,freezing,94
Venlo,51.36360931396499,6.1727776527405,January,Friday,nonholiday,off-peak,an emergency call,external,low,low,freezing,177
Hoogeveen,52.733890533446996,6.4736108779907,January,Friday,nonholiday,peak,broken down train,rolling stock,low,low,freezing,66
Meppel,52.69083404540999,6.1975002288818,January,Friday,nonholiday,peak,broken down train,rolling stock,low,low,freezing,66
Baarn,52.208332061768,5.2808332443237,January,Friday,nonholiday,peak,person hit by a train,accidents,low,low,freezing,181
Hilversum,52.225833892821996,5.1819443702698,January,Friday,nonholiday,peak,person hit by a train,accidents,low,low,freezing,181
Bad Bentheim,52.309685595156004,7.1585369110107,January,Friday,nonholiday,peak,broken down train,rolling stock,low,low,freezing,275
Oldenzaal,52.30638885498,6.9347224235535005,January,Friday,nonholiday,peak,broken down train,rolling stock,low,low,freezing,275
Amersfoort Centraal,52.153888702393,5.3705554008484,January,Friday,nonholiday,peak,person hit by a train,accidents,low,low,freezing,213
Amsterdam Centraal,52.378887176514,4.9002776145935,January,Friday,nonholiday,peak,person hit by a train,accidents,low,low,freezing,213
Amsterdam Muiderpoort,52.360553741455,4.931111335754401,January,Friday,nonholiday,peak,person hit by a train,accidents,low,low,freezing,213
Amsterdam Science Park,52.35526,4.94651,January,Friday,nonholiday,peak,person hit by a train,accidents,low,low,freezing,213
Baarn,52.208332061768,5.2808332443237,January,Friday,nonholiday,peak,person hit by a train,accidents,low,low,freezing,213
Bussum Zuid,52.26583480835,5.163055419921902,January,Friday,nonholiday,peak,person hit by a train,accidents,low,low,freezing,213
Diemen,52.34515,4.9675660000000015,January,Friday,nonholiday,peak,person hit by a train,accidents,low,low,freezing,213
Hilversum,52.225833892821996,5.1819443702698,January,Friday,nonholiday,peak,person hit by a train,accidents,low,low,freezing,213
Naarden-Bussum,52.280277252196996,5.156944274902299,January,Friday,nonholiday,peak,person hit by a train,accidents,low,low,freezing,213
Weesp,52.3127784729,5.043055534362799,January,Friday,nonholiday,peak,person hit by a train,accidents,low,low,freezing,213
Hilversum Media Park,52.238056182861,5.1738886833191,January,Friday,nonholiday,peak,person hit by a train,accidents,low,low,freezing,213
Arnhem Centraal,51.985000610352,5.899166584014901,January,Friday,nonholiday,off-peak,person hit by a train,accidents,low,low,freezing,174
Bunnik,52.063056945801,5.1944446563721,January,Friday,nonholiday,off-peak,person hit by a train,accidents,low,low,freezing,174
Driebergen-Zeist,52.065277099609006,5.25861120224,January,Friday,nonholiday,off-peak,person hit by a train,accidents,low,low,freezing,174
Ede-Wageningen,52.027778625488004,5.6730556488037,January,Friday,nonholiday,off-peak,person hit by a train,accidents,low,low,freezing,174
Veenendaal-De Klomp,52.045833587646,5.5738887786865,January,Friday,nonholiday,off-peak,person hit by a train,accidents,low,low,freezing,174
Maarn,52.064167022705,5.3699998855591,January,Friday,nonholiday,off-peak,person hit by a train,accidents,low,low,freezing,174
Oosterbeek,51.99499893188501,5.8400001525879,January,Friday,nonholiday,off-peak,person hit by a train,accidents,low,low,freezing,174
Utrecht Centraal,52.088890075684006,5.1102776527405,January,Friday,nonholiday,off-peak,person hit by a train,accidents,low,low,freezing,174
Wolfheze,52.005554199219,5.7936110496521,January,Friday,nonholiday,off-peak,person hit by a train,accidents,low,low,freezing,174
Utrecht Vaartsche Rijn,52.078889,5.121667,January,Friday,nonholiday,off-peak,person hit by a train,accidents,low,low,freezing,174
Driebergen-Zeist,52.065277099609006,5.25861120224,January,Friday,nonholiday,off-peak,person hit by a train,accidents,low,low,freezing,156
Maarn,52.064167022705,5.3699998855591,January,Friday,nonholiday,off-peak,person hit by a train,accidents,low,low,freezing,156
Veenendaal Centrum,52.020000457764,5.548611164093,January,Friday,nonholiday,off-peak,person hit by a train,accidents,low,low,freezing,156
Veenendaal West,52.028057098389,5.531388759613,January,Friday,nonholiday,off-peak,person hit by a train,accidents,low,low,freezing,156
Amersfoort Centraal,52.153888702393,5.3705554008484,January,Friday,nonholiday,off-peak,disruption elsewhere,logistical,low,low,freezing,118
Barneveld Centrum,52.139999389648,5.590277671814,January,Friday,nonholiday,off-peak,disruption elsewhere,logistical,low,low,freezing,118
Barneveld Noord,52.161388397216996,5.598055362701402,January,Friday,nonholiday,off-peak,disruption elsewhere,logistical,low,low,freezing,118
Ede-Wageningen,52.027778625488004,5.6730556488037,January,Friday,nonholiday,off-peak,disruption elsewhere,logistical,low,low,freezing,118
Ede Centrum,52.043609619140994,5.6683335304260005,January,Friday,nonholiday,off-peak,disruption elsewhere,logistical,low,low,freezing,118
Lunteren,52.085277557373,5.6244444847107005,January,Friday,nonholiday,off-peak,disruption elsewhere,logistical,low,low,freezing,118
Hoevelaken,52.16652,5.45718,January,Friday,nonholiday,off-peak,disruption elsewhere,logistical,low,low,freezing,118
Barneveld Zuid,52.128853,5.60246,January,Friday,nonholiday,off-peak,disruption elsewhere,logistical,low,low,freezing,118
Arnhem Centraal,51.985000610352,5.899166584014901,January,Friday,nonholiday,off-peak,disruption elsewhere,logistical,low,low,freezing,114
Bunnik,52.063056945801,5.1944446563721,January,Friday,nonholiday,off-peak,disruption elsewhere,logistical,low,low,freezing,114
Driebergen-Zeist,52.065277099609006,5.25861120224,January,Friday,nonholiday,off-peak,disruption elsewhere,logistical,low,low,freezing,114
Ede-Wageningen,52.027778625488004,5.6730556488037,January,Friday,nonholiday,off-peak,disruption elsewhere,logistical,low,low,freezing,114
Veenendaal-De Klomp,52.045833587646,5.5738887786865,January,Friday,nonholiday,off-peak,disruption elsewhere,logistical,low,low,freezing,114
Maarn,52.064167022705,5.3699998855591,January,Friday,nonholiday,off-peak,disruption elsewhere,logistical,low,low,freezing,114
Oosterbeek,51.99499893188501,5.8400001525879,January,Friday,nonholiday,off-peak,disruption elsewhere,logistical,low,low,freezing,114
Utrecht Centraal,52.088890075684006,5.1102776527405,January,Friday,nonholiday,off-peak,disruption elsewhere,logistical,low,low,freezing,114
Wolfheze,52.005554199219,5.7936110496521,January,Friday,nonholiday,off-peak,disruption elsewhere,logistical,low,low,freezing,114
Utrecht Vaartsche Rijn,52.078889,5.121667,January,Friday,nonholiday,off-peak,disruption elsewhere,logistical,low,low,freezing,114
Amersfoort Centraal,52.153888702393,5.3705554008484,January,Friday,nonholiday,off-peak,broken down train,rolling stock,low,low,freezing,19
Amersfoort Schothorst,52.174822137451,5.4038887023925986,January,Friday,nonholiday,off-peak,broken down train,rolling stock,low,low,freezing,19
Amersfoort Vathorst,52.192779541015994,5.4338889122009,January,Friday,nonholiday,off-peak,broken down train,rolling stock,low,low,freezing,19
Ermelo,52.301666259765994,5.6147222518921,January,Friday,nonholiday,off-peak,broken down train,rolling stock,low,low,freezing,19
Harderwijk,52.337501525879,5.619722366333,January,Friday,nonholiday,off-peak,broken down train,rolling stock,low,low,freezing,19
't Harde,52.4091682,5.893611,January,Friday,nonholiday,off-peak,broken down train,rolling stock,low,low,freezing,19
Nijkerk,52.222221374511996,5.4938888549805,January,Friday,nonholiday,off-peak,broken down train,rolling stock,low,low,freezing,19
Nunspeet,52.370834350586,5.7852778434753,January,Friday,nonholiday,off-peak,broken down train,rolling stock,low,low,freezing,19
Putten,52.264999389648,5.5752778053284,January,Friday,nonholiday,off-peak,broken down train,rolling stock,low,low,freezing,19
Wezep,52.454166412354,6.0025000572205,January,Friday,nonholiday,off-peak,broken down train,rolling stock,low,low,freezing,19
Zwolle,52.50472259521499,6.0919442176819,January,Friday,nonholiday,off-peak,broken down train,rolling stock,low,low,freezing,19
Utrecht Centraal,52.088890075684006,5.1102776527405,January,Friday,nonholiday,off-peak,broken down train,rolling stock,low,low,freezing,19
Utrecht Overvecht,52.110000610352,5.1247220039368,January,Friday,nonholiday,off-peak,broken down train,rolling stock,low,low,freezing,19
Breda,51.595554351807,4.7800002098083,January,Friday,nonholiday,off-peak,broken down train,rolling stock,low,low,freezing,31
Rotterdam Centraal,51.92499923705999,4.468888759613,January,Friday,nonholiday,off-peak,broken down train,rolling stock,low,low,freezing,31
Roosendaal,51.540279388428004,4.4583334922791,January,Friday,nonholiday,peak,an emergency call,external,low,low,freezing,108
Coevorden,52.663612365723,6.7355556488037,January,Saturday,nonholiday,off-peak,broken down train,rolling stock,medium,high,chilly,137
Dalfsen,52.498332977295,6.25861120224,January,Saturday,nonholiday,off-peak,broken down train,rolling stock,medium,high,chilly,137
Dalen,52.69416809082,6.7580556869507005,January,Saturday,nonholiday,off-peak,broken down train,rolling stock,medium,high,chilly,137
Emmen,52.790000915527,6.8994445800781,January,Saturday,nonholiday,off-peak,broken down train,rolling stock,medium,high,chilly,137
Emmen Zuid,52.748866374691,6.8747806549072,January,Saturday,nonholiday,off-peak,broken down train,rolling stock,medium,high,chilly,137
Gramsbergen,52.60916519165,6.6758332252502,January,Saturday,nonholiday,off-peak,broken down train,rolling stock,medium,high,chilly,137
Hardenberg,52.572776794434006,6.6286110877991,January,Saturday,nonholiday,off-peak,broken down train,rolling stock,medium,high,chilly,137
Mariënberg,52.50944519043,6.5752778053284,January,Saturday,nonholiday,off-peak,broken down train,rolling stock,medium,high,chilly,137
Ommen,52.50944519043,6.4158334732056,January,Saturday,nonholiday,off-peak,broken down train,rolling stock,medium,high,chilly,137
Zwolle,52.50472259521499,6.0919442176819,January,Saturday,nonholiday,off-peak,broken down train,rolling stock,medium,high,chilly,137
Barendrecht,51.854721069336,4.5533332824707005,January,Saturday,nonholiday,off-peak,broken down train,rolling stock,medium,high,chilly,40
Dordrecht,51.807220458984006,4.668333530426,January,Saturday,nonholiday,off-peak,broken down train,rolling stock,medium,high,chilly,40
Rotterdam Lombardijen,51.88000106811499,4.531388759613,January,Saturday,nonholiday,off-peak,broken down train,rolling stock,medium,high,chilly,40
Rotterdam Blaak,51.920276641846,4.4888887405395,January,Saturday,nonholiday,off-peak,broken down train,rolling stock,medium,high,chilly,40
Rotterdam Centraal,51.92499923705999,4.468888759613,January,Saturday,nonholiday,off-peak,broken down train,rolling stock,medium,high,chilly,40
Rotterdam Stadion,51.893890380859006,4.5197219848633,January,Saturday,nonholiday,off-peak,broken down train,rolling stock,medium,high,chilly,40
Rotterdam Zuid,51.904445648193,4.5102777481079,January,Saturday,nonholiday,off-peak,broken down train,rolling stock,medium,high,chilly,40
Zwijndrecht,51.814998626709006,4.6416668891907005,January,Saturday,nonholiday,off-peak,broken down train,rolling stock,medium,high,chilly,40
Breda,51.595554351807,4.7800002098083,January,Saturday,nonholiday,off-peak,broken down train,rolling stock,medium,high,chilly,38
Rotterdam Centraal,51.92499923705999,4.468888759613,January,Saturday,nonholiday,off-peak,broken down train,rolling stock,medium,high,chilly,38
Breda,51.595554351807,4.7800002098083,January,Saturday,nonholiday,off-peak,broken down train,rolling stock,medium,high,chilly,213
Rotterdam Centraal,51.92499923705999,4.468888759613,January,Saturday,nonholiday,off-peak,broken down train,rolling stock,medium,high,chilly,213
Schiphol Airport,52.30944442749001,4.7619442939758,January,Saturday,nonholiday,off-peak,broken down train,rolling stock,medium,high,chilly,213
Rotterdam Centraal,51.92499923705999,4.468888759613,January,Saturday,nonholiday,off-peak,broken down train,rolling stock,medium,high,chilly,183
Schiphol Airport,52.30944442749001,4.7619442939758,January,Saturday,nonholiday,off-peak,broken down train,rolling stock,medium,high,chilly,183
Amsterdam Centraal,52.378887176514,4.9002776145935,January,Saturday,nonholiday,off-peak,broken down train,rolling stock,medium,high,chilly,186
Amsterdam Lelylaan,52.357776641846,4.8338890075684,January,Saturday,nonholiday,off-peak,broken down train,rolling stock,medium,high,chilly,186
Amsterdam Sloterdijk,52.388889312744,4.8377776145935,January,Saturday,nonholiday,off-peak,broken down train,rolling stock,medium,high,chilly,186
Rotterdam Centraal,51.92499923705999,4.468888759613,January,Saturday,nonholiday,off-peak,broken down train,rolling stock,medium,high,chilly,186
Schiphol Airport,52.30944442749001,4.7619442939758,January,Saturday,nonholiday,off-peak,broken down train,rolling stock,medium,high,chilly,186
Breda,51.595554351807,4.7800002098083,January,Saturday,nonholiday,off-peak,broken down train,rolling stock,medium,high,chilly,17
Rotterdam Centraal,51.92499923705999,4.468888759613,January,Saturday,nonholiday,off-peak,broken down train,rolling stock,medium,high,chilly,17
Tegelen,51.33894,6.142530000000002,January,Saturday,nonholiday,off-peak,signal failure,infrastructure,medium,high,chilly,23
Venlo,51.36360931396499,6.1727776527405,January,Saturday,nonholiday,off-peak,signal failure,infrastructure,medium,high,chilly,23
Eindhoven Centraal,51.443332672119,5.4813890457153,January,Saturday,nonholiday,off-peak,broken down train,rolling stock,medium,high,chilly,26
Helmond,51.475555419921996,5.6619443893433,January,Saturday,nonholiday,off-peak,broken down train,rolling stock,medium,high,chilly,26
Helmond Brandevoort,51.462223052979,5.6072220802307,January,Saturday,nonholiday,off-peak,broken down train,rolling stock,medium,high,chilly,26
Helmond 't Hout,51.46794000000001,5.63085,January,Saturday,nonholiday,off-peak,broken down train,rolling stock,medium,high,chilly,26
Bad Bentheim,52.309685595156004,7.1585369110107,January,Saturday,nonholiday,off-peak,fire in a train,rolling stock,medium,high,chilly,87
Hengelo,52.261665344238004,6.7938890457153,January,Saturday,nonholiday,off-peak,fire in a train,rolling stock,medium,high,chilly,87
Hengelo Oost,52.268890380859006,6.8194446563721005,January,Saturday,nonholiday,off-peak,fire in a train,rolling stock,medium,high,chilly,87
Oldenzaal,52.30638885498,6.9347224235535005,January,Saturday,nonholiday,off-peak,fire in a train,rolling stock,medium,high,chilly,87
Osnabrück Hbf,52.272851,8.061781,January,Saturday,nonholiday,off-peak,fire in a train,rolling stock,medium,high,chilly,87
Rheine,52.276299,7.434255,January,Saturday,nonholiday,off-peak,fire in a train,rolling stock,medium,high,chilly,87
Blerick,51.372501373290994,6.1550002098083,January,Saturday,nonholiday,off-peak,broken down train,rolling stock,medium,high,chilly,100
Venray,51.526568099006994,6.0141777992248,January,Saturday,nonholiday,off-peak,broken down train,rolling stock,medium,high,chilly,100
Bad Bentheim,52.309685595156004,7.1585369110107,January,Saturday,nonholiday,off-peak,problems with the rolling stock,rolling stock,medium,high,chilly,88
Hengelo,52.261665344238004,6.7938890457153,January,Saturday,nonholiday,off-peak,problems with the rolling stock,rolling stock,medium,high,chilly,88
Hengelo Oost,52.268890380859006,6.8194446563721005,January,Saturday,nonholiday,off-peak,problems with the rolling stock,rolling stock,medium,high,chilly,88
Oldenzaal,52.30638885498,6.9347224235535005,January,Saturday,nonholiday,off-peak,problems with the rolling stock,rolling stock,medium,high,chilly,88
Nijmegen,51.843612670898,5.852222442626902,January,Saturday,nonholiday,off-peak,person on the railway track,external,medium,high,chilly,26
Nijmegen Dukenburg,51.824165344238004,5.7955555915833,January,Saturday,nonholiday,off-peak,person on the railway track,external,medium,high,chilly,26
Wijchen,51.811668395996,5.7308335304260005,January,Saturday,nonholiday,off-peak,person on the railway track,external,medium,high,chilly,26
Nijmegen Goffert,51.8273,5.822722,January,Saturday,nonholiday,off-peak,person on the railway track,external,medium,high,chilly,26
Breda,51.595554351807,4.7800002098083,January,Sunday,nonholiday,off-peak,signal and level crossing failure,infrastructure,low,low,freezing,20
Etten-Leur,51.57500076294001,4.6358332633972,January,Sunday,nonholiday,off-peak,signal and level crossing failure,infrastructure,low,low,freezing,20
Roosendaal,51.540279388428004,4.4583334922791,January,Sunday,nonholiday,off-peak,signal and level crossing failure,infrastructure,low,low,freezing,20
Breda,51.595554351807,4.7800002098083,January,Sunday,nonholiday,off-peak,signal and level crossing failure,infrastructure,low,low,freezing,177
Etten-Leur,51.57500076294001,4.6358332633972,January,Sunday,nonholiday,off-peak,signal and level crossing failure,infrastructure,low,low,freezing,177
Roosendaal,51.540279388428004,4.4583334922791,January,Sunday,nonholiday,off-peak,signal and level crossing failure,infrastructure,low,low,freezing,177
Arnhem Centraal,51.985000610352,5.899166584014901,January,Sunday,nonholiday,off-peak,railway problems abroad,logistical,low,low,freezing,32
Arnhem Velperpoort,51.985279083252,5.9194445610046,January,Sunday,nonholiday,off-peak,railway problems abroad,logistical,low,low,freezing,32
Duiven,51.943332672119,6.0147223472595,January,Sunday,nonholiday,off-peak,railway problems abroad,logistical,low,low,freezing,32
Emmerich,51.834283,6.255718,January,Sunday,nonholiday,off-peak,railway problems abroad,logistical,low,low,freezing,32
Zevenaar,51.923053741455,6.071944236755401,January,Sunday,nonholiday,off-peak,railway problems abroad,logistical,low,low,freezing,32
Westervoort,51.96286,5.9695,January,Sunday,nonholiday,off-peak,railway problems abroad,logistical,low,low,freezing,32
Diemen Zuid,52.330276489258004,4.9558334350586,January,Sunday,nonholiday,off-peak,broken down train,rolling stock,low,low,freezing,84
Weesp,52.3127784729,5.043055534362799,January,Sunday,nonholiday,off-peak,broken down train,rolling stock,low,low,freezing,84
Boxtel,51.58433,5.31912,January,Sunday,nonholiday,off-peak,person hit by a train,accidents,low,low,freezing,205
Oisterwijk,51.582221984863004,5.1941666603088,January,Sunday,nonholiday,off-peak,person hit by a train,accidents,low,low,freezing,205
Tilburg,51.560554504395,5.0836110115050985,January,Sunday,nonholiday,off-peak,person hit by a train,accidents,low,low,freezing,205
Arnhem Centraal,51.985000610352,5.899166584014901,January,Sunday,nonholiday,off-peak,points failure,infrastructure,low,low,freezing,129
Arnhem Zuid,51.955001831055,5.8519444465637,January,Sunday,nonholiday,off-peak,points failure,infrastructure,low,low,freezing,129
Elst,51.916942596435,5.8550000190735,January,Sunday,nonholiday,off-peak,points failure,infrastructure,low,low,freezing,129
Nijmegen,51.843612670898,5.852222442626902,January,Sunday,nonholiday,off-peak,points failure,infrastructure,low,low,freezing,129
Nijmegen Lent,51.863154,5.859625,January,Sunday,nonholiday,off-peak,points failure,infrastructure,low,low,freezing,129
Arnhem Centraal,51.985000610352,5.899166584014901,January,Sunday,nonholiday,off-peak,points failure,infrastructure,low,low,freezing,105
Arnhem Zuid,51.955001831055,5.8519444465637,January,Sunday,nonholiday,off-peak,points failure,infrastructure,low,low,freezing,105
Elst,51.916942596435,5.8550000190735,January,Sunday,nonholiday,off-peak,points failure,infrastructure,low,low,freezing,105
Nijmegen,51.843612670898,5.852222442626902,January,Sunday,nonholiday,off-peak,points failure,infrastructure,low,low,freezing,58
Nijmegen Dukenburg,51.824165344238004,5.7955555915833,January,Sunday,nonholiday,off-peak,points failure,infrastructure,low,low,freezing,58
Wijchen,51.811668395996,5.7308335304260005,January,Sunday,nonholiday,off-peak,points failure,infrastructure,low,low,freezing,58
Nijmegen Goffert,51.8273,5.822722,January,Sunday,nonholiday,off-peak,points failure,infrastructure,low,low,freezing,58
Bodegraven,52.081390380859006,4.7461109161377,January,Sunday,nonholiday,off-peak,person hit by a train,accidents,low,low,freezing,193
Woerden,52.084999084473,4.8936109542847,January,Sunday,nonholiday,off-peak,person hit by a train,accidents,low,low,freezing,193
Zwolle,52.50472259521499,6.0919442176819,January,Sunday,nonholiday,off-peak,an emergency call,external,low,low,freezing,143
Breda,51.595554351807,4.7800002098083,January,Sunday,nonholiday,off-peak,broken down train,rolling stock,low,low,freezing,115
Rotterdam Centraal,51.92499923705999,4.468888759613,January,Sunday,nonholiday,off-peak,broken down train,rolling stock,low,low,freezing,115
Lelystad Centrum,52.507778167725,5.4727778434753,January,Sunday,nonholiday,off-peak,collision,accidents,low,low,freezing,17
Dronten,52.5344,5.72089,January,Sunday,nonholiday,off-peak,collision,accidents,low,low,freezing,17
Den Helder,52.955276489258004,4.7611112594605,January,Sunday,nonholiday,off-peak,broken down train,rolling stock,low,low,freezing,18
Den Helder Zuid,52.93249893188501,4.7641668319702,January,Sunday,nonholiday,off-peak,broken down train,rolling stock,low,low,freezing,18
Delft,52.00666809082,4.3563890457153,January,Monday,nonholiday,off-peak,broken down train,rolling stock,medium,high,freezing,16
Delft Campus,51.990833282471,4.3647222518921,January,Monday,nonholiday,off-peak,broken down train,rolling stock,medium,high,freezing,16
De Vink,52.147220611571996,4.4563889503479,January,Monday,nonholiday,off-peak,broken down train,rolling stock,medium,high,freezing,16
Den Haag HS,52.069721221924,4.3225002288818,January,Monday,nonholiday,off-peak,broken down train,rolling stock,medium,high,freezing,16
Den Haag Centraal,52.080276489258004,4.3249998092651,January,Monday,nonholiday,off-peak,broken down train,rolling stock,medium,high,freezing,16
Den Haag Mariahoeve,52.090557098389,4.3694443702698,January,Monday,nonholiday,off-peak,broken down train,rolling stock,medium,high,freezing,16
Den Haag Moerwijk,52.053890228271,4.3086109161377,January,Monday,nonholiday,off-peak,broken down train,rolling stock,medium,high,freezing,16
Hoofddorp,52.293334960938,4.700555324554402,January,Monday,nonholiday,off-peak,broken down train,rolling stock,medium,high,freezing,16
Den Haag Laan v NOI,52.07860946655301,4.3427777290344,January,Monday,nonholiday,off-peak,broken down train,rolling stock,medium,high,freezing,16
Leiden Centraal,52.166110992432,4.4816665649414,January,Monday,nonholiday,off-peak,broken down train,rolling stock,medium,high,freezing,16
Nieuw Vennep,52.258888244629,4.6455554962158,January,Monday,nonholiday,off-peak,broken down train,rolling stock,medium,high,freezing,16
Rijswijk,52.039722442627,4.3191666603088,January,Monday,nonholiday,off-peak,broken down train,rolling stock,medium,high,freezing,16
Rotterdam Centraal,51.92499923705999,4.468888759613,January,Monday,nonholiday,off-peak,broken down train,rolling stock,medium,high,freezing,16
Schiedam Centrum,51.921243812803,4.4089937210083,January,Monday,nonholiday,off-peak,broken down train,rolling stock,medium,high,freezing,16
Voorschoten,52.1252784729,4.432499885559099,January,Monday,nonholiday,off-peak,broken down train,rolling stock,medium,high,freezing,16
Sassenheim,52.21527800000001,4.517222,January,Monday,nonholiday,off-peak,broken down train,rolling stock,medium,high,freezing,16
Amsterdam Centraal,52.378887176514,4.9002776145935,January,Monday,nonholiday,off-peak,broken down train,rolling stock,medium,high,freezing,52
Amsterdam Lelylaan,52.357776641846,4.8338890075684,January,Monday,nonholiday,off-peak,broken down train,rolling stock,medium,high,freezing,52
Amsterdam Sloterdijk,52.388889312744,4.8377776145935,January,Monday,nonholiday,off-peak,broken down train,rolling stock,medium,high,freezing,52
Schiphol Airport,52.30944442749001,4.7619442939758,January,Monday,nonholiday,off-peak,broken down train,rolling stock,medium,high,freezing,52
Amsterdam Zuid,52.338889,4.872356,January,Monday,nonholiday,off-peak,broken down train,rolling stock,medium,high,freezing,40
Bussum Zuid,52.26583480835,5.163055419921902,January,Monday,nonholiday,off-peak,broken down train,rolling stock,medium,high,freezing,40
Diemen Zuid,52.330276489258004,4.9558334350586,January,Monday,nonholiday,off-peak,broken down train,rolling stock,medium,high,freezing,40
Duivendrecht,52.323333740234006,4.9363889694214,January,Monday,nonholiday,off-peak,broken down train,rolling stock,medium,high,freezing,40
Hilversum,52.225833892821996,5.1819443702698,January,Monday,nonholiday,off-peak,broken down train,rolling stock,medium,high,freezing,40
Naarden-Bussum,52.280277252196996,5.156944274902299,January,Monday,nonholiday,off-peak,broken down train,rolling stock,medium,high,freezing,40
Amsterdam RAI,52.337223052979,4.8902778625488,January,Monday,nonholiday,off-peak,broken down train,rolling stock,medium,high,freezing,40
Schiphol Airport,52.30944442749001,4.7619442939758,January,Monday,nonholiday,off-peak,broken down train,rolling stock,medium,high,freezing,40
Weesp,52.3127784729,5.043055534362799,January,Monday,nonholiday,off-peak,broken down train,rolling stock,medium,high,freezing,40
Hilversum Media Park,52.238056182861,5.1738886833191,January,Monday,nonholiday,off-peak,broken down train,rolling stock,medium,high,freezing,40
Amsterdam Centraal,52.378887176514,4.9002776145935,January,Monday,nonholiday,off-peak,broken down train,rolling stock,medium,high,freezing,33
Amsterdam Lelylaan,52.357776641846,4.8338890075684,January,Monday,nonholiday,off-peak,broken down train,rolling stock,medium,high,freezing,33
Amsterdam Sloterdijk,52.388889312744,4.8377776145935,January,Monday,nonholiday,off-peak,broken down train,rolling stock,medium,high,freezing,33
Rotterdam Centraal,51.92499923705999,4.468888759613,January,Monday,nonholiday,off-peak,broken down train,rolling stock,medium,high,freezing,33
Schiphol Airport,52.30944442749001,4.7619442939758,January,Monday,nonholiday,off-peak,broken down train,rolling stock,medium,high,freezing,33
Rotterdam Centraal,51.92499923705999,4.468888759613,January,Monday,nonholiday,off-peak,broken down train,rolling stock,medium,high,freezing,33
Schiphol Airport,52.30944442749001,4.7619442939758,January,Monday,nonholiday,off-peak,broken down train,rolling stock,medium,high,freezing,33
Houten,52.03402,5.16821,January,Monday,nonholiday,peak,stranded train,rolling stock,medium,high,freezing,121
Houten Castellum,52.01701,5.17949,January,Monday,nonholiday,peak,stranded train,rolling stock,medium,high,freezing,121
Utrecht Centraal,52.088890075684006,5.1102776527405,January,Monday,nonholiday,peak,stranded train,rolling stock,medium,high,freezing,121
Utrecht Lunetten,52.06555557250999,5.144166469574,January,Monday,nonholiday,peak,stranded train,rolling stock,medium,high,freezing,121
Utrecht Vaartsche Rijn,52.078889,5.121667,January,Monday,nonholiday,peak,stranded train,rolling stock,medium,high,freezing,121
Echt,51.100555419921996,5.8788890838623,January,Monday,nonholiday,peak,broken down train,rolling stock,medium,high,freezing,177
Roermond,51.193054199219,5.9941668510437,January,Monday,nonholiday,peak,broken down train,rolling stock,medium,high,freezing,177
Susteren,51.061389923096,5.8630557060242,January,Monday,nonholiday,peak,broken down train,rolling stock,medium,high,freezing,177
Sittard,51.001667022705,5.8586111068726,January,Monday,nonholiday,peak,broken down train,rolling stock,medium,high,freezing,177
Weert,51.248611450195,5.703610897064201,January,Monday,nonholiday,peak,broken down train,rolling stock,medium,high,freezing,177
Breda,51.595554351807,4.7800002098083,January,Monday,nonholiday,off-peak,broken down train,rolling stock,medium,high,freezing,11
Rotterdam Centraal,51.92499923705999,4.468888759613,January,Monday,nonholiday,off-peak,broken down train,rolling stock,medium,high,freezing,11
Roermond,51.193054199219,5.9941668510437,January,Monday,nonholiday,off-peak,disruption elsewhere,logistical,medium,high,freezing,26
Reuver,51.283219166529996,6.0789585113525,January,Monday,nonholiday,off-peak,disruption elsewhere,logistical,medium,high,freezing,26
Swalmen,51.23582,6.03228,January,Monday,nonholiday,off-peak,disruption elsewhere,logistical,medium,high,freezing,26
Tegelen,51.33894,6.142530000000002,January,Monday,nonholiday,off-peak,disruption elsewhere,logistical,medium,high,freezing,26
Venlo,51.36360931396499,6.1727776527405,January,Monday,nonholiday,off-peak,disruption elsewhere,logistical,medium,high,freezing,26
Amsterdam Centraal,52.378887176514,4.9002776145935,January,Monday,nonholiday,off-peak,broken down train,rolling stock,medium,high,freezing,216
Amsterdam Lelylaan,52.357776641846,4.8338890075684,January,Monday,nonholiday,off-peak,broken down train,rolling stock,medium,high,freezing,216
Amsterdam Sloterdijk,52.388889312744,4.8377776145935,January,Monday,nonholiday,off-peak,broken down train,rolling stock,medium,high,freezing,216
Breda,51.595554351807,4.7800002098083,January,Monday,nonholiday,off-peak,broken down train,rolling stock,medium,high,freezing,216
Rotterdam Centraal,51.92499923705999,4.468888759613,January,Monday,nonholiday,off-peak,broken down train,rolling stock,medium,high,freezing,216
Schiphol Airport,52.30944442749001,4.7619442939758,January,Monday,nonholiday,off-peak,broken down train,rolling stock,medium,high,freezing,216
Amsterdam Centraal,52.378887176514,4.9002776145935,January,Monday,nonholiday,off-peak,broken down train,rolling stock,medium,high,freezing,16
Amsterdam Lelylaan,52.357776641846,4.8338890075684,January,Monday,nonholiday,off-peak,broken down train,rolling stock,medium,high,freezing,16
Amsterdam Sloterdijk,52.388889312744,4.8377776145935,January,Monday,nonholiday,off-peak,broken down train,rolling stock,medium,high,freezing,16
Rotterdam Centraal,51.92499923705999,4.468888759613,January,Monday,nonholiday,off-peak,broken down train,rolling stock,medium,high,freezing,16
Schiphol Airport,52.30944442749001,4.7619442939758,January,Monday,nonholiday,off-peak,broken down train,rolling stock,medium,high,freezing,16
Tegelen,51.33894,6.142530000000002,January,Monday,nonholiday,off-peak,broken down train,rolling stock,medium,high,freezing,75
Venlo,51.36360931396499,6.1727776527405,January,Monday,nonholiday,off-peak,broken down train,rolling stock,medium,high,freezing,75
Leeuwarden,53.195835113525,5.7922220230103,January,Tuesday,nonholiday,off-peak,tree on the track,external,high,high,freezing,70
Mantgum,53.1296368,5.7131996,January,Tuesday,nonholiday,off-peak,tree on the track,external,high,high,freezing,70
Sneek,53.0328688,5.6523969,January,Tuesday,nonholiday,off-peak,tree on the track,external,high,high,freezing,70
Sneek Noord,53.0409319,5.6631808,January,Tuesday,nonholiday,off-peak,tree on the track,external,high,high,freezing,70
Venlo,51.36360931396499,6.1727776527405,January,Tuesday,nonholiday,off-peak,signal failure,infrastructure,high,high,freezing,24
Groningen Europapark,53.20480027,6.5854178,January,Tuesday,nonholiday,peak,broken down train,rolling stock,high,high,freezing,127
Groningen,53.210556030273,6.5647220611572,January,Tuesday,nonholiday,peak,broken down train,rolling stock,high,high,freezing,127
Hoogezand-Sappemeer,53.159818131676,6.770753860473598,January,Tuesday,nonholiday,peak,broken down train,rolling stock,high,high,freezing,127
Kropswolde,53.16173620000001,6.7220882,January,Tuesday,nonholiday,peak,broken down train,rolling stock,high,high,freezing,127
Martenshoek,53.16072320000001,6.7402989,January,Tuesday,nonholiday,peak,broken down train,rolling stock,high,high,freezing,127
Sappemeer Oost,53.1589183,6.7955648,January,Tuesday,nonholiday,peak,broken down train,rolling stock,high,high,freezing,127
Zuidbroek,53.159612280006,6.867914199829099,January,Tuesday,nonholiday,peak,broken down train,rolling stock,high,high,freezing,127
Boxmeer,51.644521767652996,5.939033031463599,January,Tuesday,nonholiday,peak,broken down train,rolling stock,high,high,freezing,237
Cuijk,51.726682587904996,5.8742952346802,January,Tuesday,nonholiday,peak,broken down train,rolling stock,high,high,freezing,237
Mook Molenhoek,51.766262,5.879133,January,Tuesday,nonholiday,peak,broken down train,rolling stock,high,high,freezing,237
Nijmegen,51.843612670898,5.852222442626902,January,Tuesday,nonholiday,peak,broken down train,rolling stock,high,high,freezing,237
Nijmegen Heyendaal,51.826946258545,5.867499828338599,January,Tuesday,nonholiday,peak,broken down train,rolling stock,high,high,freezing,237
Vierlingsbeek,51.59193,5.99714,January,Tuesday,nonholiday,peak,broken down train,rolling stock,high,high,freezing,237
Venray,51.526568099006994,6.0141777992248,January,Tuesday,nonholiday,peak,broken down train,rolling stock,high,high,freezing,237
Almere Centrum,52.37503,5.21764,January,Tuesday,nonholiday,off-peak,broken down train,rolling stock,high,high,freezing,18
Almere Buiten,52.394165039062,5.2780556678772,January,Tuesday,nonholiday,off-peak,broken down train,rolling stock,high,high,freezing,18
Almere Oostvaarders,52.403331756591996,5.3005557060242,January,Tuesday,nonholiday,off-peak,broken down train,rolling stock,high,high,freezing,18
Almere Parkwijk,52.376667022705,5.244722366333,January,Tuesday,nonholiday,off-peak,broken down train,rolling stock,high,high,freezing,18
Rotterdam Centraal,51.92499923705999,4.468888759613,January,Tuesday,nonholiday,off-peak,stranded train,rolling stock,high,high,freezing,51
Schiphol Airport,52.30944442749001,4.7619442939758,January,Tuesday,nonholiday,off-peak,stranded train,rolling stock,high,high,freezing,51
Diemen Zuid,52.330276489258004,4.9558334350586,January,Tuesday,nonholiday,off-peak,points failure,infrastructure,high,high,freezing,16
Weesp,52.3127784729,5.043055534362799,January,Tuesday,nonholiday,off-peak,points failure,infrastructure,high,high,freezing,16
Diemen Zuid,52.330276489258004,4.9558334350586,January,Tuesday,nonholiday,off-peak,points failure,infrastructure,high,high,freezing,92
Weesp,52.3127784729,5.043055534362799,January,Tuesday,nonholiday,off-peak,points failure,infrastructure,high,high,freezing,92
Antwerpen-Centraal,51.2161,4.42122,January,Tuesday,nonholiday,off-peak,points failure,infrastructure,high,high,freezing,263
Rotterdam Centraal,51.92499923705999,4.468888759613,January,Tuesday,nonholiday,off-peak,points failure,infrastructure,high,high,freezing,263
Boxmeer,51.644521767652996,5.939033031463599,January,Tuesday,nonholiday,peak,person on the railway track,external,high,high,freezing,22
Blerick,51.372501373290994,6.1550002098083,January,Tuesday,nonholiday,peak,person on the railway track,external,high,high,freezing,22
Cuijk,51.726682587904996,5.8742952346802,January,Tuesday,nonholiday,peak,person on the railway track,external,high,high,freezing,22
Mook Molenhoek,51.766262,5.879133,January,Tuesday,nonholiday,peak,person on the railway track,external,high,high,freezing,22
Nijmegen,51.843612670898,5.852222442626902,January,Tuesday,nonholiday,peak,person on the railway track,external,high,high,freezing,22
Nijmegen Heyendaal,51.826946258545,5.867499828338599,January,Tuesday,nonholiday,peak,person on the railway track,external,high,high,freezing,22
Venlo,51.36360931396499,6.1727776527405,January,Tuesday,nonholiday,peak,person on the railway track,external,high,high,freezing,22
Vierlingsbeek,51.59193,5.99714,January,Tuesday,nonholiday,peak,person on the railway track,external,high,high,freezing,22
Venray,51.526568099006994,6.0141777992248,January,Tuesday,nonholiday,peak,person on the railway track,external,high,high,freezing,22
Almelo,52.358055114746,6.6538887023925986,January,Tuesday,nonholiday,peak,broken down train,rolling stock,high,high,freezing,70
Rijssen,52.3122215271,6.5202779769897,January,Tuesday,nonholiday,peak,broken down train,rolling stock,high,high,freezing,70
Wierden,52.361389160156,6.5916666984558,January,Tuesday,nonholiday,peak,broken down train,rolling stock,high,high,freezing,70
Akkrum,53.046390533446996,5.843611240387,January,Tuesday,nonholiday,peak,broken down train,rolling stock,high,high,freezing,19
Grou-Jirnsum,53.088890075684006,5.8225002288818,January,Tuesday,nonholiday,peak,broken down train,rolling stock,high,high,freezing,19
Heerenveen,52.961387634277,5.9141664505005,January,Tuesday,nonholiday,peak,broken down train,rolling stock,high,high,freezing,19
Leeuwarden,53.195835113525,5.7922220230103,January,Tuesday,nonholiday,peak,broken down train,rolling stock,high,high,freezing,19
Meppel,52.69083404540999,6.1975002288818,January,Tuesday,nonholiday,peak,broken down train,rolling stock,high,high,freezing,19
Steenwijk,52.791510992432,6.114555763244599,January,Tuesday,nonholiday,peak,broken down train,rolling stock,high,high,freezing,19
Wolvega,52.880832672119,6.0036110877991,January,Tuesday,nonholiday,peak,broken down train,rolling stock,high,high,freezing,19
Heerenveen IJsstadion,52.935276031494,5.943888664245598,January,Tuesday,nonholiday,peak,broken down train,rolling stock,high,high,freezing,19
Almelo,52.358055114746,6.6538887023925986,January,Tuesday,nonholiday,peak,broken down train,rolling stock,high,high,freezing,56
Almelo de Riet,52.341945648193,6.666666507720901,January,Tuesday,nonholiday,peak,broken down train,rolling stock,high,high,freezing,56
Borne,52.298889160156,6.7480554580689,January,Tuesday,nonholiday,peak,broken down train,rolling stock,high,high,freezing,56
Enschede,52.222499847412,6.889999866485598,January,Tuesday,nonholiday,peak,broken down train,rolling stock,high,high,freezing,56
Hengelo,52.261665344238004,6.7938890457153,January,Tuesday,nonholiday,peak,broken down train,rolling stock,high,high,freezing,56
Nijverdal,52.366111,6.4620000000000015,January,Tuesday,nonholiday,peak,broken down train,rolling stock,high,high,freezing,56
Raalte,52.391666412354,6.2775001525879,January,Tuesday,nonholiday,peak,broken down train,rolling stock,high,high,freezing,56
Wierden,52.361389160156,6.5916666984558,January,Tuesday,nonholiday,peak,broken down train,rolling stock,high,high,freezing,56
Enschede Kennispark,52.23749923705999,6.8388891220093,January,Tuesday,nonholiday,peak,broken down train,rolling stock,high,high,freezing,56
Amersfoort Centraal,52.153888702393,5.3705554008484,January,Tuesday,nonholiday,peak,broken down train,rolling stock,high,high,freezing,12
Almelo,52.358055114746,6.6538887023925986,January,Tuesday,nonholiday,peak,broken down train,rolling stock,high,high,freezing,12
Almelo de Riet,52.341945648193,6.666666507720901,January,Tuesday,nonholiday,peak,broken down train,rolling stock,high,high,freezing,12
Apeldoorn,52.209167480469,5.9702777862549015,January,Tuesday,nonholiday,peak,broken down train,rolling stock,high,high,freezing,12
Apeldoorn Osseveld,52.215278625488004,6.0044445991516,January,Tuesday,nonholiday,peak,broken down train,rolling stock,high,high,freezing,12
Amsterdam Centraal,52.378887176514,4.9002776145935,January,Tuesday,nonholiday,peak,broken down train,rolling stock,high,high,freezing,12
Amsterdam Muiderpoort,52.360553741455,4.931111335754401,January,Tuesday,nonholiday,peak,broken down train,rolling stock,high,high,freezing,12
Amsterdam Science Park,52.35526,4.94651,January,Tuesday,nonholiday,peak,broken down train,rolling stock,high,high,freezing,12
Bad Bentheim,52.309685595156004,7.1585369110107,January,Tuesday,nonholiday,peak,broken down train,rolling stock,high,high,freezing,12
Borne,52.298889160156,6.7480554580689,January,Tuesday,nonholiday,peak,broken down train,rolling stock,high,high,freezing,12
Baarn,52.208332061768,5.2808332443237,January,Tuesday,nonholiday,peak,broken down train,rolling stock,high,high,freezing,12
Bussum Zuid,52.26583480835,5.163055419921902,January,Tuesday,nonholiday,peak,broken down train,rolling stock,high,high,freezing,12
Diemen,52.34515,4.9675660000000015,January,Tuesday,nonholiday,peak,broken down train,rolling stock,high,high,freezing,12
Deventer,52.257499694824,6.160555362701402,January,Tuesday,nonholiday,peak,broken down train,rolling stock,high,high,freezing,12
Deventer Colmschate,52.2502784729,6.214444637298598,January,Tuesday,nonholiday,peak,broken down train,rolling stock,high,high,freezing,12
Hengelo,52.261665344238004,6.7938890457153,January,Tuesday,nonholiday,peak,broken down train,rolling stock,high,high,freezing,12
Hengelo Oost,52.268890380859006,6.8194446563721005,January,Tuesday,nonholiday,peak,broken down train,rolling stock,high,high,freezing,12
Holten,52.283889770508004,6.420277595519999,January,Tuesday,nonholiday,peak,broken down train,rolling stock,high,high,freezing,12
Hilversum,52.225833892821996,5.1819443702698,January,Tuesday,nonholiday,peak,broken down train,rolling stock,high,high,freezing,12
Naarden-Bussum,52.280277252196996,5.156944274902299,January,Tuesday,nonholiday,peak,broken down train,rolling stock,high,high,freezing,12
Oldenzaal,52.30638885498,6.9347224235535005,January,Tuesday,nonholiday,peak,broken down train,rolling stock,high,high,freezing,12
Rijssen,52.3122215271,6.5202779769897,January,Tuesday,nonholiday,peak,broken down train,rolling stock,high,high,freezing,12
Twello,52.237777709961,6.0986108779907,January,Tuesday,nonholiday,peak,broken down train,rolling stock,high,high,freezing,12
Wierden,52.361389160156,6.5916666984558,January,Tuesday,nonholiday,peak,broken down train,rolling stock,high,high,freezing,12
Weesp,52.3127784729,5.043055534362799,January,Tuesday,nonholiday,peak,broken down train,rolling stock,high,high,freezing,12
Hilversum Media Park,52.238056182861,5.1738886833191,January,Tuesday,nonholiday,peak,broken down train,rolling stock,high,high,freezing,12
Rijssen,52.3122215271,6.5202779769897,January,Tuesday,nonholiday,peak,broken down train,rolling stock,high,high,freezing,99
Wierden,52.361389160156,6.5916666984558,January,Tuesday,nonholiday,peak,broken down train,rolling stock,high,high,freezing,99
Delden,52.25999832153301,6.7161111831665,January,Tuesday,nonholiday,peak,broken down train,rolling stock,high,high,freezing,84
Goor,52.230278015136996,6.584444522857701,January,Tuesday,nonholiday,peak,broken down train,rolling stock,high,high,freezing,84
Hengelo,52.261665344238004,6.7938890457153,January,Tuesday,nonholiday,peak,broken down train,rolling stock,high,high,freezing,84
Lochem,52.166667938232,6.426388740539499,January,Tuesday,nonholiday,peak,broken down train,rolling stock,high,high,freezing,84
Zutphen,52.145278930664,6.1941666603088,January,Tuesday,nonholiday,peak,broken down train,rolling stock,high,high,freezing,84
Hengelo Gezondheidspark,52.261667,6.773611,January,Tuesday,nonholiday,peak,broken down train,rolling stock,high,high,freezing,84
Amersfoort Centraal,52.153888702393,5.3705554008484,January,Tuesday,nonholiday,peak,broken down train,rolling stock,high,high,freezing,19
Almelo,52.358055114746,6.6538887023925986,January,Tuesday,nonholiday,peak,broken down train,rolling stock,high,high,freezing,19
Almelo de Riet,52.341945648193,6.666666507720901,January,Tuesday,nonholiday,peak,broken down train,rolling stock,high,high,freezing,19
Apeldoorn,52.209167480469,5.9702777862549015,January,Tuesday,nonholiday,peak,broken down train,rolling stock,high,high,freezing,19
Apeldoorn Osseveld,52.215278625488004,6.0044445991516,January,Tuesday,nonholiday,peak,broken down train,rolling stock,high,high,freezing,19
Amsterdam Centraal,52.378887176514,4.9002776145935,January,Tuesday,nonholiday,peak,broken down train,rolling stock,high,high,freezing,19
Amsterdam Muiderpoort,52.360553741455,4.931111335754401,January,Tuesday,nonholiday,peak,broken down train,rolling stock,high,high,freezing,19
Amsterdam Science Park,52.35526,4.94651,January,Tuesday,nonholiday,peak,broken down train,rolling stock,high,high,freezing,19
Bad Bentheim,52.309685595156004,7.1585369110107,January,Tuesday,nonholiday,peak,broken down train,rolling stock,high,high,freezing,19
Borne,52.298889160156,6.7480554580689,January,Tuesday,nonholiday,peak,broken down train,rolling stock,high,high,freezing,19
Baarn,52.208332061768,5.2808332443237,January,Tuesday,nonholiday,peak,broken down train,rolling stock,high,high,freezing,19
Bussum Zuid,52.26583480835,5.163055419921902,January,Tuesday,nonholiday,peak,broken down train,rolling stock,high,high,freezing,19
Diemen,52.34515,4.9675660000000015,January,Tuesday,nonholiday,peak,broken down train,rolling stock,high,high,freezing,19
Deventer,52.257499694824,6.160555362701402,January,Tuesday,nonholiday,peak,broken down train,rolling stock,high,high,freezing,19
Deventer Colmschate,52.2502784729,6.214444637298598,January,Tuesday,nonholiday,peak,broken down train,rolling stock,high,high,freezing,19
Hengelo,52.261665344238004,6.7938890457153,January,Tuesday,nonholiday,peak,broken down train,rolling stock,high,high,freezing,19
Hengelo Oost,52.268890380859006,6.8194446563721005,January,Tuesday,nonholiday,peak,broken down train,rolling stock,high,high,freezing,19
Holten,52.283889770508004,6.420277595519999,January,Tuesday,nonholiday,peak,broken down train,rolling stock,high,high,freezing,19
Hilversum,52.225833892821996,5.1819443702698,January,Tuesday,nonholiday,peak,broken down train,rolling stock,high,high,freezing,19
Naarden-Bussum,52.280277252196996,5.156944274902299,January,Tuesday,nonholiday,peak,broken down train,rolling stock,high,high,freezing,19
Oldenzaal,52.30638885498,6.9347224235535005,January,Tuesday,nonholiday,peak,broken down train,rolling stock,high,high,freezing,19
Rijssen,52.3122215271,6.5202779769897,January,Tuesday,nonholiday,peak,broken down train,rolling stock,high,high,freezing,19
Twello,52.237777709961,6.0986108779907,January,Tuesday,nonholiday,peak,broken down train,rolling stock,high,high,freezing,19
Wierden,52.361389160156,6.5916666984558,January,Tuesday,nonholiday,peak,broken down train,rolling stock,high,high,freezing,19
Weesp,52.3127784729,5.043055534362799,January,Tuesday,nonholiday,peak,broken down train,rolling stock,high,high,freezing,19
Hilversum Media Park,52.238056182861,5.1738886833191,January,Tuesday,nonholiday,peak,broken down train,rolling stock,high,high,freezing,19
Arkel,51.87194442749001,4.9927778244019,January,Wednesday,nonholiday,off-peak,engineering works,engineering work,medium,high,freezing,131
Beesd,51.899444580078004,5.1944446563721,January,Wednesday,nonholiday,off-peak,engineering works,engineering work,medium,high,freezing,131
Dordrecht,51.807220458984006,4.668333530426,January,Wednesday,nonholiday,off-peak,engineering works,engineering work,medium,high,freezing,131
Dordrecht Stadspolders,51.801944732665994,4.7166666984558,January,Wednesday,nonholiday,off-peak,engineering works,engineering work,medium,high,freezing,131
Geldermalsen,51.88301,5.27127,January,Wednesday,nonholiday,off-peak,engineering works,engineering work,medium,high,freezing,131
Hardinxveld-Giessendam,51.830554962158004,4.8358335494995,January,Wednesday,nonholiday,off-peak,engineering works,engineering work,medium,high,freezing,131
Gorinchem,51.833889007568,4.9683332443237,January,Wednesday,nonholiday,off-peak,engineering works,engineering work,medium,high,freezing,131
Leerdam,51.894721984863004,5.0913887023925986,January,Wednesday,nonholiday,off-peak,engineering works,engineering work,medium,high,freezing,131
Sliedrecht,51.829723358154,4.7783331871033,January,Wednesday,nonholiday,off-peak,engineering works,engineering work,medium,high,freezing,131
Boven-Hardinxveld,51.832222,4.878056,January,Wednesday,nonholiday,off-peak,engineering works,engineering work,medium,high,freezing,131
Sliedrecht Baanhoek,51.829722,4.743333,January,Wednesday,nonholiday,off-peak,engineering works,engineering work,medium,high,freezing,131
Hardinxveld Blauwe Zoom,51.82944000000001,4.81556,January,Wednesday,nonholiday,off-peak,engineering works,engineering work,medium,high,freezing,131
Breukelen,52.17149000000001,4.9906,January,Wednesday,nonholiday,off-peak,slippery railway tracks,weather,medium,high,freezing,209
Maarssen,52.135276794434006,5.0336112976074014,January,Wednesday,nonholiday,off-peak,slippery railway tracks,weather,medium,high,freezing,209
Utrecht Centraal,52.088890075684006,5.1102776527405,January,Wednesday,nonholiday,off-peak,slippery railway tracks,weather,medium,high,freezing,209
Utrecht Zuilen,52.103055,5.09,January,Wednesday,nonholiday,off-peak,slippery railway tracks,weather,medium,high,freezing,209
Brummen,52.091110229491996,6.146944522857701,January,Wednesday,nonholiday,peak,broken down train,rolling stock,medium,high,freezing,11
Dieren,52.044998168945,6.103055477142299,January,Wednesday,nonholiday,peak,broken down train,rolling stock,medium,high,freezing,11
Rheden,52.0101,6.0314,January,Wednesday,nonholiday,peak,broken down train,rolling stock,medium,high,freezing,11
Breda,51.595554351807,4.7800002098083,January,Wednesday,nonholiday,peak,broken down train,rolling stock,medium,high,freezing,37
Breda-Prinsenbeek,51.606388092040994,4.7208333015442,January,Wednesday,nonholiday,peak,broken down train,rolling stock,medium,high,freezing,37
Lage Zwaluwe,51.69111251830999,4.663055419921902,January,Wednesday,nonholiday,peak,broken down train,rolling stock,medium,high,freezing,37
Breda,51.595554351807,4.7800002098083,January,Wednesday,nonholiday,peak,broken down train,rolling stock,medium,high,freezing,16
Boxmeer,51.644521767652996,5.939033031463599,January,Wednesday,nonholiday,peak,broken down train,rolling stock,medium,high,freezing,88
Cuijk,51.726682587904996,5.8742952346802,January,Wednesday,nonholiday,peak,broken down train,rolling stock,medium,high,freezing,88
Dordrecht,51.807220458984006,4.668333530426,January,Wednesday,nonholiday,off-peak,broken down train,rolling stock,medium,high,freezing,59
Dordrecht Stadspolders,51.801944732665994,4.7166666984558,January,Wednesday,nonholiday,off-peak,broken down train,rolling stock,medium,high,freezing,59
Hardinxveld-Giessendam,51.830554962158004,4.8358335494995,January,Wednesday,nonholiday,off-peak,broken down train,rolling stock,medium,high,freezing,59
Gorinchem,51.833889007568,4.9683332443237,January,Wednesday,nonholiday,off-peak,broken down train,rolling stock,medium,high,freezing,59
Sliedrecht,51.829723358154,4.7783331871033,January,Wednesday,nonholiday,off-peak,broken down train,rolling stock,medium,high,freezing,59
Boven-Hardinxveld,51.832222,4.878056,January,Wednesday,nonholiday,off-peak,broken down train,rolling stock,medium,high,freezing,59
Sliedrecht Baanhoek,51.829722,4.743333,January,Wednesday,nonholiday,off-peak,broken down train,rolling stock,medium,high,freezing,59
Hardinxveld Blauwe Zoom,51.82944000000001,4.81556,January,Wednesday,nonholiday,off-peak,broken down train,rolling stock,medium,high,freezing,59
Breda,51.595554351807,4.7800002098083,January,Wednesday,nonholiday,off-peak,broken down train,rolling stock,medium,high,freezing,121
Rotterdam Centraal,51.92499923705999,4.468888759613,January,Wednesday,nonholiday,off-peak,broken down train,rolling stock,medium,high,freezing,121
Schiphol Airport,52.30944442749001,4.7619442939758,January,Wednesday,nonholiday,off-peak,broken down train,rolling stock,medium,high,freezing,121
Amsterdam Centraal,52.378887176514,4.9002776145935,January,Wednesday,nonholiday,off-peak,broken down train,rolling stock,medium,high,freezing,94
Amsterdam Lelylaan,52.357776641846,4.8338890075684,January,Wednesday,nonholiday,off-peak,broken down train,rolling stock,medium,high,freezing,94
Amsterdam Sloterdijk,52.388889312744,4.8377776145935,January,Wednesday,nonholiday,off-peak,broken down train,rolling stock,medium,high,freezing,94
Rotterdam Centraal,51.92499923705999,4.468888759613,January,Wednesday,nonholiday,off-peak,broken down train,rolling stock,medium,high,freezing,94
Schiphol Airport,52.30944442749001,4.7619442939758,January,Wednesday,nonholiday,off-peak,broken down train,rolling stock,medium,high,freezing,94
Rotterdam Centraal,51.92499923705999,4.468888759613,January,Wednesday,nonholiday,off-peak,broken down train,rolling stock,medium,high,freezing,91
Schiphol Airport,52.30944442749001,4.7619442939758,January,Wednesday,nonholiday,off-peak,broken down train,rolling stock,medium,high,freezing,91
Heemstede-Aerdenhout,52.35916519165,4.6066665649414,January,Wednesday,nonholiday,peak,broken down train,rolling stock,medium,high,freezing,56
Hillegom,52.302501678466996,4.565555572509799,January,Wednesday,nonholiday,peak,broken down train,rolling stock,medium,high,freezing,56
Haarlem,52.38777923584001,4.6383333206177015,January,Wednesday,nonholiday,peak,broken down train,rolling stock,medium,high,freezing,56
Leiden Centraal,52.166110992432,4.4816665649414,January,Wednesday,nonholiday,peak,broken down train,rolling stock,medium,high,freezing,56
Voorhout,52.224445343018,4.4844446182250985,January,Wednesday,nonholiday,peak,broken down train,rolling stock,medium,high,freezing,56
De Vink,52.147220611571996,4.4563889503479,January,Wednesday,nonholiday,peak,broken down train,rolling stock,medium,high,freezing,45
Den Haag Centraal,52.080276489258004,4.3249998092651,January,Wednesday,nonholiday,peak,broken down train,rolling stock,medium,high,freezing,45
Den Haag Mariahoeve,52.090557098389,4.3694443702698,January,Wednesday,nonholiday,peak,broken down train,rolling stock,medium,high,freezing,45
Den Haag Laan v NOI,52.07860946655301,4.3427777290344,January,Wednesday,nonholiday,peak,broken down train,rolling stock,medium,high,freezing,45
Leiden Centraal,52.166110992432,4.4816665649414,January,Wednesday,nonholiday,peak,broken down train,rolling stock,medium,high,freezing,45
Voorschoten,52.1252784729,4.432499885559099,January,Wednesday,nonholiday,peak,broken down train,rolling stock,medium,high,freezing,45
Amsterdam Centraal,52.378887176514,4.9002776145935,January,Wednesday,nonholiday,peak,broken down train,rolling stock,medium,high,freezing,44
Amsterdam Sloterdijk,52.388889312744,4.8377776145935,January,Wednesday,nonholiday,peak,broken down train,rolling stock,medium,high,freezing,44
Haarlem,52.38777923584001,4.6383333206177015,January,Wednesday,nonholiday,peak,broken down train,rolling stock,medium,high,freezing,44
Haarlem Spaarnwoude,52.382778167725,4.6730556488037,January,Wednesday,nonholiday,peak,broken down train,rolling stock,medium,high,freezing,44
Halfweg-Zwanenburg,52.385935,4.747165,January,Wednesday,nonholiday,peak,broken down train,rolling stock,medium,high,freezing,44
Breda,51.595554351807,4.7800002098083,January,Wednesday,nonholiday,peak,broken down train,rolling stock,medium,high,freezing,18
Brummen,52.091110229491996,6.146944522857701,January,Wednesday,nonholiday,peak,damaged railway bridge,infrastructure,medium,high,freezing,202
Dieren,52.044998168945,6.103055477142299,January,Wednesday,nonholiday,peak,damaged railway bridge,infrastructure,medium,high,freezing,202
Zutphen,52.145278930664,6.1941666603088,January,Wednesday,nonholiday,peak,damaged railway bridge,infrastructure,medium,high,freezing,202
Apeldoorn,52.209167480469,5.9702777862549015,January,Wednesday,nonholiday,peak,damaged railway bridge,infrastructure,medium,high,freezing,146
Apeldoorn De Maten,52.205276489258004,6.0005555152893,January,Wednesday,nonholiday,peak,damaged railway bridge,infrastructure,medium,high,freezing,146
Klarenbeek,52.17805480957,6.0836110115050985,January,Wednesday,nonholiday,peak,damaged railway bridge,infrastructure,medium,high,freezing,146
Voorst-Empe,52.15750122070301,6.1436109542847,January,Wednesday,nonholiday,peak,damaged railway bridge,infrastructure,medium,high,freezing,146
Zutphen,52.145278930664,6.1941666603088,January,Wednesday,nonholiday,peak,damaged railway bridge,infrastructure,medium,high,freezing,146
Barneveld Centrum,52.139999389648,5.590277671814,January,Wednesday,nonholiday,off-peak,points failure,infrastructure,medium,high,freezing,104
Ede-Wageningen,52.027778625488004,5.6730556488037,January,Wednesday,nonholiday,off-peak,points failure,infrastructure,medium,high,freezing,104
Ede Centrum,52.043609619140994,5.6683335304260005,January,Wednesday,nonholiday,off-peak,points failure,infrastructure,medium,high,freezing,104
Lunteren,52.085277557373,5.6244444847107005,January,Wednesday,nonholiday,off-peak,points failure,infrastructure,medium,high,freezing,104
Barneveld Zuid,52.128853,5.60246,January,Wednesday,nonholiday,off-peak,points failure,infrastructure,medium,high,freezing,104
Schiphol Airport,52.30944442749001,4.7619442939758,January,Wednesday,nonholiday,off-peak,broken down train,rolling stock,medium,high,freezing,54
Breda,51.595554351807,4.7800002098083,January,Thursday,nonholiday,off-peak,broken down train,rolling stock,medium,low,freezing,154
Rotterdam Centraal,51.92499923705999,4.468888759613,January,Thursday,nonholiday,off-peak,broken down train,rolling stock,medium,low,freezing,154
Breukelen,52.17149000000001,4.9906,January,Thursday,nonholiday,peak,slippery railway tracks,weather,medium,low,freezing,133
Maarssen,52.135276794434006,5.0336112976074014,January,Thursday,nonholiday,peak,slippery railway tracks,weather,medium,low,freezing,133
Utrecht Centraal,52.088890075684006,5.1102776527405,January,Thursday,nonholiday,peak,slippery railway tracks,weather,medium,low,freezing,133
Utrecht Zuilen,52.103055,5.09,January,Thursday,nonholiday,peak,slippery railway tracks,weather,medium,low,freezing,133
Alphen a/d Rijn,52.124443054199,4.6577777862549,January,Thursday,nonholiday,peak,an earlier disruption,logistical,medium,low,freezing,49
Boskoop,52.077777862549,4.6469445228577,January,Thursday,nonholiday,peak,an earlier disruption,logistical,medium,low,freezing,49
Gouda,52.017501831055,4.7044444084167,January,Thursday,nonholiday,peak,an earlier disruption,logistical,medium,low,freezing,49
Waddinxveen,52.044166564940994,4.6497220993042,January,Thursday,nonholiday,peak,an earlier disruption,logistical,medium,low,freezing,49
Waddinxveen Noord,52.055000305176,4.6483335494995,January,Thursday,nonholiday,peak,an earlier disruption,logistical,medium,low,freezing,49
Boskoop Snijdelwijk,52.067658,4.646186,January,Thursday,nonholiday,peak,an earlier disruption,logistical,medium,low,freezing,49
Waddinxveen Triangel,52.02725,4.6491,January,Thursday,nonholiday,peak,an earlier disruption,logistical,medium,low,freezing,49
Apeldoorn,52.209167480469,5.9702777862549015,January,Thursday,nonholiday,off-peak,broken down train,rolling stock,medium,low,freezing,94
Apeldoorn Osseveld,52.215278625488004,6.0044445991516,January,Thursday,nonholiday,off-peak,broken down train,rolling stock,medium,low,freezing,94
Deventer,52.257499694824,6.160555362701402,January,Thursday,nonholiday,off-peak,broken down train,rolling stock,medium,low,freezing,94
Twello,52.237777709961,6.0986108779907,January,Thursday,nonholiday,off-peak,broken down train,rolling stock,medium,low,freezing,94
Breda,51.595554351807,4.7800002098083,January,Thursday,nonholiday,off-peak,damaged overhead wires,infrastructure,medium,low,freezing,171
Rotterdam Centraal,51.92499923705999,4.468888759613,January,Thursday,nonholiday,off-peak,damaged overhead wires,infrastructure,medium,low,freezing,171
Antwerpen-Centraal,51.2161,4.42122,January,Thursday,nonholiday,off-peak,damaged overhead wires,infrastructure,medium,low,freezing,116
Rotterdam Centraal,51.92499923705999,4.468888759613,January,Thursday,nonholiday,off-peak,damaged overhead wires,infrastructure,medium,low,freezing,116
Rotterdam Centraal,51.92499923705999,4.468888759613,January,Thursday,nonholiday,off-peak,broken down train,rolling stock,medium,low,freezing,53
Schiphol Airport,52.30944442749001,4.7619442939758,January,Thursday,nonholiday,off-peak,broken down train,rolling stock,medium,low,freezing,53
Culemborg,51.946666717529,5.2269444465637,January,Thursday,nonholiday,off-peak,level crossing failure,infrastructure,medium,low,freezing,44
Geldermalsen,51.88301,5.27127,January,Thursday,nonholiday,off-peak,level crossing failure,infrastructure,medium,low,freezing,44
's-Hertogenbosch,51.69048,5.29362,January,Thursday,nonholiday,off-peak,level crossing failure,infrastructure,medium,low,freezing,44
Houten,52.03402,5.16821,January,Thursday,nonholiday,off-peak,level crossing failure,infrastructure,medium,low,freezing,44
Houten Castellum,52.01701,5.17949,January,Thursday,nonholiday,off-peak,level crossing failure,infrastructure,medium,low,freezing,44
Utrecht Centraal,52.088890075684006,5.1102776527405,January,Thursday,nonholiday,off-peak,level crossing failure,infrastructure,medium,low,freezing,44
Zaltbommel,51.80888748169001,5.2633333206177015,January,Thursday,nonholiday,off-peak,level crossing failure,infrastructure,medium,low,freezing,44
Utrecht Lunetten,52.06555557250999,5.144166469574,January,Thursday,nonholiday,off-peak,level crossing failure,infrastructure,medium,low,freezing,44
Utrecht Vaartsche Rijn,52.078889,5.121667,January,Thursday,nonholiday,off-peak,level crossing failure,infrastructure,medium,low,freezing,44
Boxtel,51.58433,5.31912,January,Thursday,nonholiday,off-peak,person on the railway track,external,medium,low,freezing,14
's-Hertogenbosch,51.69048,5.29362,January,Thursday,nonholiday,off-peak,person on the railway track,external,medium,low,freezing,14
Vught,51.655555725098,5.2919445037842,January,Thursday,nonholiday,off-peak,person on the railway track,external,medium,low,freezing,14
Breukelen,52.17149000000001,4.9906,January,Thursday,nonholiday,peak,slippery railway tracks,weather,medium,low,freezing,165
Maarssen,52.135276794434006,5.0336112976074014,January,Thursday,nonholiday,peak,slippery railway tracks,weather,medium,low,freezing,165
Utrecht Centraal,52.088890075684006,5.1102776527405,January,Thursday,nonholiday,peak,slippery railway tracks,weather,medium,low,freezing,165
Utrecht Zuilen,52.103055,5.09,January,Thursday,nonholiday,peak,slippery railway tracks,weather,medium,low,freezing,165
Breda,51.595554351807,4.7800002098083,January,Thursday,nonholiday,peak,broken down train,rolling stock,medium,low,freezing,101
Rotterdam Centraal,51.92499923705999,4.468888759613,January,Thursday,nonholiday,peak,broken down train,rolling stock,medium,low,freezing,101
Breda,51.595554351807,4.7800002098083,January,Thursday,nonholiday,peak,broken down train,rolling stock,medium,low,freezing,93
Breda-Prinsenbeek,51.606388092040994,4.7208333015442,January,Thursday,nonholiday,peak,broken down train,rolling stock,medium,low,freezing,93
Dordrecht,51.807220458984006,4.668333530426,January,Thursday,nonholiday,peak,broken down train,rolling stock,medium,low,freezing,93
Dordrecht Zuid,51.790000915527,4.6713891029358,January,Thursday,nonholiday,peak,broken down train,rolling stock,medium,low,freezing,93
Lage Zwaluwe,51.69111251830999,4.663055419921902,January,Thursday,nonholiday,peak,broken down train,rolling stock,medium,low,freezing,93
's-Hertogenbosch,51.69048,5.29362,January,Thursday,nonholiday,peak,collision with an animal,accidents,medium,low,freezing,45
Tilburg,51.560554504395,5.0836110115050985,January,Thursday,nonholiday,peak,collision with an animal,accidents,medium,low,freezing,45
Breda,51.595554351807,4.7800002098083,January,Thursday,nonholiday,peak,collision with an animal,accidents,medium,low,freezing,38
Gilze-Rijen,51.583610534668,4.9261112213135,January,Thursday,nonholiday,peak,collision with an animal,accidents,medium,low,freezing,38
Tilburg Reeshof,51.57361221313501,4.9944443702698,January,Thursday,nonholiday,peak,collision with an animal,accidents,medium,low,freezing,38
Tilburg Universiteit,51.564985,5.051778,January,Thursday,nonholiday,peak,collision with an animal,accidents,medium,low,freezing,38
's-Hertogenbosch,51.69048,5.29362,January,Thursday,nonholiday,peak,collision with an animal,accidents,medium,low,freezing,37
's-Hertogenbosch Oost,51.700553894043,5.3183331489563,January,Thursday,nonholiday,peak,collision with an animal,accidents,medium,low,freezing,37
Oss,51.765556335449,5.5322222709656,January,Thursday,nonholiday,peak,collision with an animal,accidents,medium,low,freezing,37
Oss West,51.758056640625,5.505555629730201,January,Thursday,nonholiday,peak,collision with an animal,accidents,medium,low,freezing,37
Rosmalen,51.714721679688,5.3680553436279,January,Thursday,nonholiday,peak,collision with an animal,accidents,medium,low,freezing,37
Breda,51.595554351807,4.7800002098083,January,Thursday,nonholiday,off-peak,broken down train,rolling stock,medium,low,freezing,65
Rotterdam Centraal,51.92499923705999,4.468888759613,January,Thursday,nonholiday,off-peak,broken down train,rolling stock,medium,low,freezing,65
Amsterdam Centraal,52.378887176514,4.9002776145935,January,Thursday,nonholiday,off-peak,broken down train,rolling stock,medium,low,freezing,27
Amsterdam Lelylaan,52.357776641846,4.8338890075684,January,Thursday,nonholiday,off-peak,broken down train,rolling stock,medium,low,freezing,27
Amsterdam Sloterdijk,52.388889312744,4.8377776145935,January,Thursday,nonholiday,off-peak,broken down train,rolling stock,medium,low,freezing,27
Rotterdam Centraal,51.92499923705999,4.468888759613,January,Thursday,nonholiday,off-peak,broken down train,rolling stock,medium,low,freezing,27
Schiphol Airport,52.30944442749001,4.7619442939758,January,Thursday,nonholiday,off-peak,broken down train,rolling stock,medium,low,freezing,27
Amsterdam Centraal,52.378887176514,4.9002776145935,January,Thursday,nonholiday,off-peak,broken down train,rolling stock,medium,low,freezing,24
Amsterdam Lelylaan,52.357776641846,4.8338890075684,January,Thursday,nonholiday,off-peak,broken down train,rolling stock,medium,low,freezing,24
Amsterdam Sloterdijk,52.388889312744,4.8377776145935,January,Thursday,nonholiday,off-peak,broken down train,rolling stock,medium,low,freezing,24
Rotterdam Centraal,51.92499923705999,4.468888759613,January,Thursday,nonholiday,off-peak,broken down train,rolling stock,medium,low,freezing,24
Schiphol Airport,52.30944442749001,4.7619442939758,January,Thursday,nonholiday,off-peak,broken down train,rolling stock,medium,low,freezing,24
Boxmeer,51.644521767652996,5.939033031463599,January,Friday,nonholiday,off-peak,broken down train,rolling stock,medium,low,freezing,47
Vierlingsbeek,51.59193,5.99714,January,Friday,nonholiday,off-peak,broken down train,rolling stock,medium,low,freezing,47
Meppel,52.69083404540999,6.1975002288818,January,Friday,nonholiday,off-peak,points failure,infrastructure,medium,low,freezing,93
Zwolle,52.50472259521499,6.0919442176819,January,Friday,nonholiday,off-peak,points failure,infrastructure,medium,low,freezing,93
Almere Centrum,52.37503,5.21764,January,Friday,nonholiday,off-peak,broken down train,rolling stock,medium,low,freezing,58
Almere Muziekwijk,52.367500305176,5.1902775764465,January,Friday,nonholiday,off-peak,broken down train,rolling stock,medium,low,freezing,58
Weesp,52.3127784729,5.043055534362799,January,Friday,nonholiday,off-peak,broken down train,rolling stock,medium,low,freezing,58
Almere Poort,52.342778,5.151944,January,Friday,nonholiday,off-peak,broken down train,rolling stock,medium,low,freezing,58
Dalfsen,52.498332977295,6.25861120224,January,Friday,nonholiday,off-peak,points failure,infrastructure,medium,low,freezing,48
Zwolle,52.50472259521499,6.0919442176819,January,Friday,nonholiday,off-peak,points failure,infrastructure,medium,low,freezing,48
Breda,51.595554351807,4.7800002098083,January,Friday,nonholiday,off-peak,broken down train,rolling stock,medium,low,freezing,47
Rotterdam Centraal,51.92499923705999,4.468888759613,January,Friday,nonholiday,off-peak,broken down train,rolling stock,medium,low,freezing,47
Amsterdam Centraal,52.378887176514,4.9002776145935,January,Friday,nonholiday,off-peak,broken down train,rolling stock,medium,low,freezing,65
Amsterdam Sloterdijk,52.388889312744,4.8377776145935,January,Friday,nonholiday,off-peak,broken down train,rolling stock,medium,low,freezing,65
Haarlem,52.38777923584001,4.6383333206177015,January,Friday,nonholiday,off-peak,broken down train,rolling stock,medium,low,freezing,65
Haarlem Spaarnwoude,52.382778167725,4.6730556488037,January,Friday,nonholiday,off-peak,broken down train,rolling stock,medium,low,freezing,65
Halfweg-Zwanenburg,52.385935,4.747165,January,Friday,nonholiday,off-peak,broken down train,rolling stock,medium,low,freezing,65
Breda,51.595554351807,4.7800002098083,January,Friday,nonholiday,off-peak,broken down train,rolling stock,medium,low,freezing,53
Rotterdam Centraal,51.92499923705999,4.468888759613,January,Friday,nonholiday,off-peak,broken down train,rolling stock,medium,low,freezing,53
Delft,52.00666809082,4.3563890457153,January,Friday,nonholiday,off-peak,broken down train,rolling stock,medium,low,freezing,44
Delft Campus,51.990833282471,4.3647222518921,January,Friday,nonholiday,off-peak,broken down train,rolling stock,medium,low,freezing,44
Den Haag HS,52.069721221924,4.3225002288818,January,Friday,nonholiday,off-peak,broken down train,rolling stock,medium,low,freezing,44
Den Haag Centraal,52.080276489258004,4.3249998092651,January,Friday,nonholiday,off-peak,broken down train,rolling stock,medium,low,freezing,44
Den Haag Moerwijk,52.053890228271,4.3086109161377,January,Friday,nonholiday,off-peak,broken down train,rolling stock,medium,low,freezing,44
Rijswijk,52.039722442627,4.3191666603088,January,Friday,nonholiday,off-peak,broken down train,rolling stock,medium,low,freezing,44
Rotterdam Centraal,51.92499923705999,4.468888759613,January,Friday,nonholiday,off-peak,broken down train,rolling stock,medium,low,freezing,44
Schiedam Centrum,51.921243812803,4.4089937210083,January,Friday,nonholiday,off-peak,broken down train,rolling stock,medium,low,freezing,44
Deurne,51.455833435059006,5.788888931274401,January,Friday,nonholiday,peak,broken down train,rolling stock,medium,low,freezing,47
Helmond,51.475555419921996,5.6619443893433,January,Friday,nonholiday,peak,broken down train,rolling stock,medium,low,freezing,47
Helmond Brouwhuis,51.47068,5.70177,January,Friday,nonholiday,peak,broken down train,rolling stock,medium,low,freezing,47
Horst-Sevenum,51.42638778686499,6.0422220230103,January,Friday,nonholiday,peak,broken down train,rolling stock,medium,low,freezing,47
Heemstede-Aerdenhout,52.35916519165,4.6066665649414,January,Friday,nonholiday,off-peak,broken down train,rolling stock,medium,low,freezing,11
Hillegom,52.302501678466996,4.565555572509799,January,Friday,nonholiday,off-peak,broken down train,rolling stock,medium,low,freezing,11
Haarlem,52.38777923584001,4.6383333206177015,January,Friday,nonholiday,off-peak,broken down train,rolling stock,medium,low,freezing,11
Leiden Centraal,52.166110992432,4.4816665649414,January,Friday,nonholiday,off-peak,broken down train,rolling stock,medium,low,freezing,11
Voorhout,52.224445343018,4.4844446182250985,January,Friday,nonholiday,off-peak,broken down train,rolling stock,medium,low,freezing,11
Purmerend Overwhere,52.51139068603501,4.9683332443237,January,Friday,nonholiday,off-peak,stranded train,rolling stock,medium,low,freezing,13
Purmerend,52.50305557250999,4.9536108970642,January,Friday,nonholiday,off-peak,stranded train,rolling stock,medium,low,freezing,13
Purmerend Weidevenne,52.496590632542,4.9356293678284,January,Friday,nonholiday,off-peak,stranded train,rolling stock,medium,low,freezing,13
Zaandam,52.438888549805,4.8136110305786,January,Friday,nonholiday,off-peak,stranded train,rolling stock,medium,low,freezing,13
Zaandam Kogerveld,52.456665039062,4.8202776908875,January,Friday,nonholiday,off-peak,stranded train,rolling stock,medium,low,freezing,13
Assen,52.991664886475,6.5708332061768,January,Saturday,nonholiday,off-peak,collision,accidents,medium,high,chilly,14
Beilen,52.854721069336,6.5211110115050985,January,Saturday,nonholiday,off-peak,collision,accidents,medium,high,chilly,14
Groningen Europapark,53.20480027,6.5854178,January,Saturday,nonholiday,off-peak,collision,accidents,medium,high,chilly,14
Groningen,53.210556030273,6.5647220611572,January,Saturday,nonholiday,off-peak,collision,accidents,medium,high,chilly,14
Hoogeveen,52.733890533446996,6.4736108779907,January,Saturday,nonholiday,off-peak,collision,accidents,medium,high,chilly,14
Haren,53.17610931396499,6.6172223091125,January,Saturday,nonholiday,off-peak,collision,accidents,medium,high,chilly,14
Meppel,52.69083404540999,6.1975002288818,January,Saturday,nonholiday,off-peak,collision,accidents,medium,high,chilly,14
Amsterdam Centraal,52.378887176514,4.9002776145935,January,Saturday,nonholiday,off-peak,broken down train,rolling stock,medium,high,chilly,14
Amsterdam Lelylaan,52.357776641846,4.8338890075684,January,Saturday,nonholiday,off-peak,broken down train,rolling stock,medium,high,chilly,14
Amsterdam Sloterdijk,52.388889312744,4.8377776145935,January,Saturday,nonholiday,off-peak,broken down train,rolling stock,medium,high,chilly,14
Rotterdam Centraal,51.92499923705999,4.468888759613,January,Saturday,nonholiday,off-peak,broken down train,rolling stock,medium,high,chilly,14
Schiphol Airport,52.30944442749001,4.7619442939758,January,Saturday,nonholiday,off-peak,broken down train,rolling stock,medium,high,chilly,14
Heerlen,50.89083480835,5.9749999046326,January,Saturday,nonholiday,off-peak,problems with the rolling stock,rolling stock,medium,high,chilly,42
Heerlen Woonboulevard,50.896667,5.952222,January,Saturday,nonholiday,off-peak,problems with the rolling stock,rolling stock,medium,high,chilly,42
Klimmen-Ransdaal,50.866390228271,5.8905553817749,January,Saturday,nonholiday,off-peak,problems with the rolling stock,rolling stock,medium,high,chilly,42
Meerssen,50.88287939255101,5.7509994506836,January,Saturday,nonholiday,off-peak,problems with the rolling stock,rolling stock,medium,high,chilly,42
Maastricht,50.850276947021,5.7055554389954,January,Saturday,nonholiday,off-peak,problems with the rolling stock,rolling stock,medium,high,chilly,42
Houthem-St. Gerlach,50.873332977295,5.7972221374512,January,Saturday,nonholiday,off-peak,problems with the rolling stock,rolling stock,medium,high,chilly,42
Schin op Geul,50.856388092040994,5.8722224235535005,January,Saturday,nonholiday,off-peak,problems with the rolling stock,rolling stock,medium,high,chilly,42
Voerendaal,50.887222290039,5.930277824401902,January,Saturday,nonholiday,off-peak,problems with the rolling stock,rolling stock,medium,high,chilly,42
Valkenburg,50.869720458984006,5.8322219848633,January,Saturday,nonholiday,off-peak,problems with the rolling stock,rolling stock,medium,high,chilly,42
Maastricht Noord,50.87087,5.71774,January,Saturday,nonholiday,off-peak,problems with the rolling stock,rolling stock,medium,high,chilly,42
Amsterdam Centraal,52.378887176514,4.9002776145935,January,Saturday,nonholiday,off-peak,broken down train,rolling stock,medium,high,chilly,14
Amsterdam Lelylaan,52.357776641846,4.8338890075684,January,Saturday,nonholiday,off-peak,broken down train,rolling stock,medium,high,chilly,14
Amsterdam Sloterdijk,52.388889312744,4.8377776145935,January,Saturday,nonholiday,off-peak,broken down train,rolling stock,medium,high,chilly,14
Rotterdam Centraal,51.92499923705999,4.468888759613,January,Saturday,nonholiday,off-peak,broken down train,rolling stock,medium,high,chilly,14
Schiphol Airport,52.30944442749001,4.7619442939758,January,Saturday,nonholiday,off-peak,broken down train,rolling stock,medium,high,chilly,14
Amersfoort Centraal,52.153888702393,5.3705554008484,January,Saturday,nonholiday,off-peak,collision,accidents,medium,high,chilly,20
Apeldoorn,52.209167480469,5.9702777862549015,January,Saturday,nonholiday,off-peak,collision,accidents,medium,high,chilly,20
Purmerend Overwhere,52.51139068603501,4.9683332443237,January,Sunday,nonholiday,off-peak,broken down train,rolling stock,high,high,chilly,59
Purmerend,52.50305557250999,4.9536108970642,January,Sunday,nonholiday,off-peak,broken down train,rolling stock,high,high,chilly,59
Purmerend Weidevenne,52.496590632542,4.9356293678284,January,Sunday,nonholiday,off-peak,broken down train,rolling stock,high,high,chilly,59
Zaandam,52.438888549805,4.8136110305786,January,Sunday,nonholiday,off-peak,broken down train,rolling stock,high,high,chilly,59
Zaandam Kogerveld,52.456665039062,4.8202776908875,January,Sunday,nonholiday,off-peak,broken down train,rolling stock,high,high,chilly,59
Almere Centrum,52.37503,5.21764,January,Sunday,nonholiday,off-peak,an emergency call,external,high,high,chilly,158
Almere Buiten,52.394165039062,5.2780556678772,January,Sunday,nonholiday,off-peak,an emergency call,external,high,high,chilly,158
Almere Muziekwijk,52.367500305176,5.1902775764465,January,Sunday,nonholiday,off-peak,an emergency call,external,high,high,chilly,158
Almere Oostvaarders,52.403331756591996,5.3005557060242,January,Sunday,nonholiday,off-peak,an emergency call,external,high,high,chilly,158
Almere Parkwijk,52.376667022705,5.244722366333,January,Sunday,nonholiday,off-peak,an emergency call,external,high,high,chilly,158
Amsterdam Zuid,52.338889,4.872356,January,Sunday,nonholiday,off-peak,an emergency call,external,high,high,chilly,158
Diemen Zuid,52.330276489258004,4.9558334350586,January,Sunday,nonholiday,off-peak,an emergency call,external,high,high,chilly,158
Duivendrecht,52.323333740234006,4.9363889694214,January,Sunday,nonholiday,off-peak,an emergency call,external,high,high,chilly,158
Hoofddorp,52.293334960938,4.700555324554402,January,Sunday,nonholiday,off-peak,an emergency call,external,high,high,chilly,158
Amsterdam RAI,52.337223052979,4.8902778625488,January,Sunday,nonholiday,off-peak,an emergency call,external,high,high,chilly,158
Schiphol Airport,52.30944442749001,4.7619442939758,January,Sunday,nonholiday,off-peak,an emergency call,external,high,high,chilly,158
Weesp,52.3127784729,5.043055534362799,January,Sunday,nonholiday,off-peak,an emergency call,external,high,high,chilly,158
Almere Poort,52.342778,5.151944,January,Sunday,nonholiday,off-peak,an emergency call,external,high,high,chilly,158
Breda,51.595554351807,4.7800002098083,January,Sunday,nonholiday,off-peak,damaged overhead wires,infrastructure,high,high,chilly,45
Rotterdam Centraal,51.92499923705999,4.468888759613,January,Sunday,nonholiday,off-peak,damaged overhead wires,infrastructure,high,high,chilly,45
Boxtel,51.58433,5.31912,January,Sunday,nonholiday,off-peak,over-running engineering works,engineering work,high,high,chilly,80
's-Hertogenbosch,51.69048,5.29362,January,Sunday,nonholiday,off-peak,over-running engineering works,engineering work,high,high,chilly,80
Tilburg,51.560554504395,5.0836110115050985,January,Sunday,nonholiday,off-peak,over-running engineering works,engineering work,high,high,chilly,80
Vught,51.655555725098,5.2919445037842,January,Sunday,nonholiday,off-peak,over-running engineering works,engineering work,high,high,chilly,80
Gouda,52.017501831055,4.7044444084167,January,Sunday,nonholiday,off-peak,person hit by a train,accidents,high,high,chilly,178
Gouda Goverwelle,52.014999389648,4.7408332824707005,January,Sunday,nonholiday,off-peak,person hit by a train,accidents,high,high,chilly,178
Woerden,52.084999084473,4.8936109542847,January,Sunday,nonholiday,off-peak,person hit by a train,accidents,high,high,chilly,178
Gouda,52.017501831055,4.7044444084167,January,Sunday,nonholiday,off-peak,person hit by a train,accidents,high,high,chilly,90
Gouda Goverwelle,52.014999389648,4.7408332824707005,January,Sunday,nonholiday,off-peak,person hit by a train,accidents,high,high,chilly,90
Woerden,52.084999084473,4.8936109542847,January,Sunday,nonholiday,off-peak,person hit by a train,accidents,high,high,chilly,90
Gouda Goverwelle,52.014999389648,4.7408332824707005,January,Sunday,nonholiday,off-peak,an earlier disruption,logistical,high,high,chilly,74
Oudenbosch,51.587776184082,4.5333333015442,January,Sunday,nonholiday,off-peak,person hit by a train,accidents,high,high,chilly,196
Lage Zwaluwe,51.69111251830999,4.663055419921902,January,Sunday,nonholiday,off-peak,person hit by a train,accidents,high,high,chilly,196
Zevenbergen,51.64042,4.60904,January,Sunday,nonholiday,off-peak,person hit by a train,accidents,high,high,chilly,196
Amsterdam Centraal,52.378887176514,4.9002776145935,January,Sunday,nonholiday,off-peak,broken down train,rolling stock,high,high,chilly,120
Amsterdam Lelylaan,52.357776641846,4.8338890075684,January,Sunday,nonholiday,off-peak,broken down train,rolling stock,high,high,chilly,120
Amsterdam Sloterdijk,52.388889312744,4.8377776145935,January,Sunday,nonholiday,off-peak,broken down train,rolling stock,high,high,chilly,120
Rotterdam Centraal,51.92499923705999,4.468888759613,January,Sunday,nonholiday,off-peak,broken down train,rolling stock,high,high,chilly,120
Schiphol Airport,52.30944442749001,4.7619442939758,January,Sunday,nonholiday,off-peak,broken down train,rolling stock,high,high,chilly,120
Deurne,51.455833435059006,5.788888931274401,January,Sunday,nonholiday,off-peak,person hit by a train,accidents,high,high,chilly,243
Horst-Sevenum,51.42638778686499,6.0422220230103,January,Sunday,nonholiday,off-peak,person hit by a train,accidents,high,high,chilly,243
Heemstede-Aerdenhout,52.35916519165,4.6066665649414,January,Sunday,nonholiday,off-peak,person hit by a train,accidents,high,high,chilly,160
Hillegom,52.302501678466996,4.565555572509799,January,Sunday,nonholiday,off-peak,person hit by a train,accidents,high,high,chilly,160
Haarlem,52.38777923584001,4.6383333206177015,January,Sunday,nonholiday,off-peak,person hit by a train,accidents,high,high,chilly,160
Leiden Centraal,52.166110992432,4.4816665649414,January,Sunday,nonholiday,off-peak,person hit by a train,accidents,high,high,chilly,160
Voorhout,52.224445343018,4.4844446182250985,January,Sunday,nonholiday,off-peak,person hit by a train,accidents,high,high,chilly,160
De Vink,52.147220611571996,4.4563889503479,January,Sunday,nonholiday,off-peak,disruption elsewhere,logistical,high,high,chilly,140
Den Haag Centraal,52.080276489258004,4.3249998092651,January,Sunday,nonholiday,off-peak,disruption elsewhere,logistical,high,high,chilly,140
Den Haag Mariahoeve,52.090557098389,4.3694443702698,January,Sunday,nonholiday,off-peak,disruption elsewhere,logistical,high,high,chilly,140
Den Haag Laan v NOI,52.07860946655301,4.3427777290344,January,Sunday,nonholiday,off-peak,disruption elsewhere,logistical,high,high,chilly,140
Leiden Centraal,52.166110992432,4.4816665649414,January,Sunday,nonholiday,off-peak,disruption elsewhere,logistical,high,high,chilly,140
Voorschoten,52.1252784729,4.432499885559099,January,Sunday,nonholiday,off-peak,disruption elsewhere,logistical,high,high,chilly,140
Essen (B),51.46261,4.45129,January,Monday,nonholiday,peak,broken down train,rolling stock,high,high,freezing,55
Roosendaal,51.540279388428004,4.4583334922791,January,Monday,nonholiday,peak,broken down train,rolling stock,high,high,freezing,55
Purmerend,52.50305557250999,4.9536108970642,January,Monday,nonholiday,off-peak,broken down train,rolling stock,high,high,freezing,37
Purmerend Weidevenne,52.496590632542,4.9356293678284,January,Monday,nonholiday,off-peak,broken down train,rolling stock,high,high,freezing,37
Eijsden,50.771945953369,5.710000038147,January,Monday,nonholiday,off-peak,railway problems abroad,logistical,high,high,freezing,59
Maastricht Randwyck,50.83861160278301,5.7172222137450985,January,Monday,nonholiday,off-peak,railway problems abroad,logistical,high,high,freezing,59
Breda,51.595554351807,4.7800002098083,January,Monday,nonholiday,peak,broken down train,rolling stock,high,high,freezing,18
Rotterdam Centraal,51.92499923705999,4.468888759613,January,Monday,nonholiday,peak,broken down train,rolling stock,high,high,freezing,18
Amsterdam Centraal,52.378887176514,4.9002776145935,January,Monday,nonholiday,off-peak,broken down train,rolling stock,high,high,freezing,70
Amsterdam Lelylaan,52.357776641846,4.8338890075684,January,Monday,nonholiday,off-peak,broken down train,rolling stock,high,high,freezing,70
Amsterdam Sloterdijk,52.388889312744,4.8377776145935,January,Monday,nonholiday,off-peak,broken down train,rolling stock,high,high,freezing,70
Rotterdam Centraal,51.92499923705999,4.468888759613,January,Monday,nonholiday,off-peak,broken down train,rolling stock,high,high,freezing,70
Schiphol Airport,52.30944442749001,4.7619442939758,January,Monday,nonholiday,off-peak,broken down train,rolling stock,high,high,freezing,70
Alphen a/d Rijn,52.124443054199,4.6577777862549,January,Tuesday,nonholiday,peak,broken down train,rolling stock,low,high,freezing,237
Boskoop,52.077777862549,4.6469445228577,January,Tuesday,nonholiday,peak,broken down train,rolling stock,low,high,freezing,237
Gouda,52.017501831055,4.7044444084167,January,Tuesday,nonholiday,peak,broken down train,rolling stock,low,high,freezing,237
Waddinxveen,52.044166564940994,4.6497220993042,January,Tuesday,nonholiday,peak,broken down train,rolling stock,low,high,freezing,237
Waddinxveen Noord,52.055000305176,4.6483335494995,January,Tuesday,nonholiday,peak,broken down train,rolling stock,low,high,freezing,237
Boskoop Snijdelwijk,52.067658,4.646186,January,Tuesday,nonholiday,peak,broken down train,rolling stock,low,high,freezing,237
Waddinxveen Triangel,52.02725,4.6491,January,Tuesday,nonholiday,peak,broken down train,rolling stock,low,high,freezing,237
Amsterdam Amstel,52.346668243408004,4.9177780151367,January,Tuesday,nonholiday,off-peak,broken down train,rolling stock,low,high,freezing,36
Amsterdam Bijlmer ArenA,52.3122215271,4.9469442367554,January,Tuesday,nonholiday,off-peak,broken down train,rolling stock,low,high,freezing,36
Amsterdam Centraal,52.378887176514,4.9002776145935,January,Tuesday,nonholiday,off-peak,broken down train,rolling stock,low,high,freezing,36
Amsterdam Muiderpoort,52.360553741455,4.931111335754401,January,Tuesday,nonholiday,off-peak,broken down train,rolling stock,low,high,freezing,36
Duivendrecht,52.323333740234006,4.9363889694214,January,Tuesday,nonholiday,off-peak,broken down train,rolling stock,low,high,freezing,36
Amsterdam Centraal,52.378887176514,4.9002776145935,January,Tuesday,nonholiday,peak,repair works,engineering work,low,high,freezing,243
